City_ID,City,Lat,Lng,Max Temp,Humidity,Cloudiness,Wind Speed,Country,Date
0,edinburgh of the seven seas,-37.0676,-12.3116,13.03,65,27,8.86,SH,1683740521
1,ribeira grande,38.5167,-28.7,20.22,68,20,4.12,PT,1683740521
2,piacabucu,-10.4056,-36.4344,29.37,61,45,4.62,BR,1683740521
3,tiksi,71.6872,128.8694,-19.86,95,16,4.46,RU,1683740522
4,adamstown,-25.066,-130.1015,22.3,62,100,9.72,PN,1683740522
5,yuzhno-kurilsk,44.0306,145.8556,3.49,92,41,4.48,RU,1683740522
6,waitangi,-43.9535,-176.5597,14.34,79,13,4.02,NZ,1683740524
7,blackmans bay,-43.0167,147.3167,5.85,89,11,2.2,AU,1683740524
8,iqaluit,63.7506,-68.5145,-0.15,59,75,4.63,CA,1683740524
9,muhos,64.808,25.9931,12.88,49,100,4.88,FI,1683740525
10,talnakh,69.4865,88.3972,-21.53,84,37,1.35,RU,1683740525
11,igarka,67.4667,86.5833,-9.01,92,100,5.92,RU,1683740525
12,alice springs,-23.7,133.8833,2.75,75,0,1.72,AU,1683740526
13,new norfolk,-42.7826,147.0587,6.51,77,44,1.19,AU,1683740526
14,crane,31.3974,-102.3501,29.06,34,42,7.64,US,1683740526
15,nova vicosa,-17.8919,-39.3719,26.82,65,98,2.14,BR,1683740527
16,keffi,8.8486,7.8736,31.93,45,100,1.6,NG,1683740527
17,port-aux-francais,-49.35,70.2167,6.11,95,57,7.44,TF,1683740527
18,port mathurin,-19.6833,63.4167,25.8,72,3,8.54,MU,1683740528
19,aldan,58.6031,125.3894,-1.84,98,36,1.63,RU,1683740528
20,balaipungut,1.05,101.2833,25.11,94,98,0.87,ID,1683740528
21,aban,56.67,96.06,1.75,57,1,2.64,RU,1683740528
22,fort mcmurray,56.7268,-111.381,19.77,48,0,1.03,CA,1683740461
23,grytviken,-54.2811,-36.5092,-0.92,88,100,7.27,GS,1683740529
24,arraial do cabo,-22.9661,-42.0278,21.98,100,100,3.6,BR,1683740529
25,fale old settlement,-9.3852,-171.2468,29.02,78,6,7.7,TK,1683740529
26,qaqortoq,60.7167,-46.0333,4.51,93,100,2.7,GL,1683740530
27,tinogasta,-28.0632,-67.5649,21.45,38,5,2.14,AR,1683740530
28,albany,42.6001,-73.9662,21.43,27,3,1.79,US,1683740408
29,hamilton,39.1834,-84.5333,24.22,35,0,5.66,US,1683740484
30,papatowai,-46.5619,169.4708,6.46,68,100,8.16,NZ,1683740531
31,colotlan,22.1,-103.2667,28.55,15,0,7.54,MX,1683740531
32,moscow,55.7522,37.6156,14.24,45,96,1.37,RU,1683740229
33,guarapari,-20.6667,-40.4975,27.16,74,100,1.64,BR,1683740532
34,yellowknife,62.456,-114.3525,15.29,36,40,3.58,CA,1683740236
35,narvik,68.4384,17.4272,9.66,93,100,1.56,NO,1683740532
36,avarua,-21.2078,-159.775,24.03,83,75,4.63,CK,1683740533
37,tidjikja,18.5564,-11.4271,39.58,8,25,2.84,MR,1683740533
38,kununurra,-15.7667,128.7333,18.99,42,74,3.6,AU,1683740533
39,mhamid,29.82,-5.72,38.3,6,1,8.08,MA,1683740534
40,bamboo flat,11.7,92.7167,28.98,78,100,10.34,IN,1683740534
41,saldanha,-33.0117,17.9442,16.03,90,1,5.01,ZA,1683740534
42,weno,7.4515,151.8468,26.97,89,100,2.57,FM,1683740535
43,kruisfontein,-34.0033,24.7314,21.05,22,44,3.14,ZA,1683740535
44,udachny,66.4167,112.4,-14.47,89,55,2.02,RU,1683740535
45,cururupu,-1.8283,-44.8683,29.78,67,47,2.15,BR,1683740535
46,rabo de peixe,37.8,-25.5833,17.73,88,75,5.14,PT,1683740536
47,georgetown,5.4112,100.3354,29.96,89,20,1.03,MY,1683740393
48,port shepstone,-30.7414,30.455,17.5,89,0,1.88,ZA,1683740536
49,college,64.8569,-147.8028,10.18,54,75,0.0,US,1683740537
50,ketchikan,55.3422,-131.6461,13.26,50,0,3.6,US,1683740537
51,stavern,59.0,10.0333,16.85,73,50,3.08,NO,1683740537
52,xiongzhou,25.1167,114.3,22.64,97,99,0.56,CN,1683740537
53,san luis de la loma,17.2706,-100.8939,32.16,51,21,4.96,MX,1683740248
54,birobidzhan,48.8,132.95,4.94,91,25,0.88,RU,1683740538
55,ushuaia,-54.8,-68.3,6.81,53,40,6.17,AR,1683740394
56,coruripe,-10.1256,-36.1756,28.25,66,36,4.23,BR,1683740539
57,paraisopolis,-22.5542,-45.78,22.42,79,99,0.73,BR,1683740526
58,lompoc,34.6391,-120.4579,19.27,69,100,7.15,US,1683740539
59,kongolo,-5.3833,27.0,23.81,81,65,1.21,CD,1683740540
60,puerto natales,-51.7236,-72.4875,1.25,93,75,0.0,CL,1683740541
61,daru,-9.0763,143.2092,24.82,96,95,3.9,PG,1683740541
62,lebu,-37.6167,-73.65,13.27,89,100,7.14,CL,1683740542
63,aasiaat,68.7098,-52.8699,-1.81,79,99,4.95,GL,1683740542
64,salalah,17.0151,54.0924,29.05,79,20,3.09,OM,1683740542
65,thompson,55.7435,-97.8558,16.09,59,75,4.12,CA,1683740543
66,quellon,-43.1167,-73.6167,13.14,94,100,4.63,CL,1683740543
67,vila velha,-20.3297,-40.2925,27.97,74,20,4.12,BR,1683740543
68,invercargill,-46.4,168.35,8.34,95,90,1.34,NZ,1683740544
69,margaret river,-33.95,115.0667,15.57,49,100,7.52,AU,1683740544
70,pontes e lacerda,-15.2261,-59.3353,29.17,59,81,2.24,BR,1683740545
71,hithadhoo,-0.6,73.0833,27.91,79,27,4.97,MV,1683740545
72,port alfred,-33.5906,26.891,17.88,85,43,2.91,ZA,1683740545
73,puerto ayora,-0.7393,-90.3518,30.98,91,72,4.02,EC,1683740546
74,zambezi,-13.5432,23.1047,18.77,43,0,1.7,ZM,1683740546
75,camayenne,9.535,-13.6878,29.05,61,75,0.0,GN,1683740546
76,iskateley,67.6803,53.1512,-3.25,86,100,0.62,RU,1683740547
77,bonthe,7.5264,-12.505,27.31,73,100,4.18,SL,1683740547
78,port elizabeth,-33.918,25.5701,22.28,80,0,0.89,ZA,1683740547
79,kiunga,-6.1219,141.2906,23.64,100,100,1.21,PG,1683740547
80,utrik,11.2278,169.8474,27.34,79,91,8.4,MH,1683740553
81,broome,42.2506,-75.833,21.12,35,0,5.66,US,1683740558
82,kovernino,57.1253,43.8142,8.89,65,86,1.31,RU,1683740558
83,susuman,62.7833,148.1667,-1.21,86,27,1.74,RU,1683740288
84,ilulissat,69.2167,-51.1,-0.99,74,75,6.17,GL,1683740559
85,boyolangu,-8.1181,111.8935,24.78,95,98,0.47,ID,1683740559
86,aral,40.5156,81.2636,19.36,9,22,4.8,CN,1683740560
87,kodiak,57.79,-152.4072,4.73,93,100,10.29,US,1683740560
88,khandyga,62.6667,135.6,1.1,69,96,4.14,RU,1683740560
89,chonchi,-42.6128,-73.8092,12.84,97,100,2.26,CL,1683740560
90,aghsu,40.5703,48.4009,16.77,85,97,0.67,AZ,1683740561
91,nadym,65.5333,72.5167,-5.18,89,99,7.67,RU,1683740561
92,bethel,41.3712,-73.414,21.77,29,0,3.09,US,1683740417
93,xam nua,20.4197,104.0439,18.74,98,100,0.97,LA,1683740562
94,trail,49.0998,-117.7022,18.71,63,87,0.93,CA,1683740502
95,tchibanga,-2.85,11.0333,23.54,95,57,0.88,GA,1683740562
96,hohhot,40.8106,111.6522,16.62,62,0,1.0,CN,1683740563
97,nova sintra,14.8667,-24.7167,19.12,86,2,10.09,CV,1683740563
98,veinticinco de mayo,-35.4323,-60.1727,20.55,46,6,1.79,AR,1683740563
99,keflavik,64.0049,-22.5624,8.95,87,75,4.12,IS,1683740564
100,kwang binh,17.4833,106.6,26.69,89,97,0.77,VN,1683740544
101,wailua homesteads,22.0669,-159.378,22.44,83,100,4.63,US,1683740564
102,buinsk,54.95,48.2833,10.78,55,98,0.89,RU,1683740565
103,ixtapa,20.7,-105.2,28.57,54,0,4.12,MX,1683740565
104,tra vinh,9.9347,106.3453,25.51,89,75,1.0,VN,1683740565
105,san antonio de pale,-1.4014,5.6325,28.42,72,96,2.03,GQ,1683740565
106,afaahiti,-17.75,-149.2833,24.93,85,86,13.41,PF,1683740566
107,vila franca do campo,37.7167,-25.4333,18.23,89,27,3.67,PT,1683740566
108,cidreira,-30.1811,-50.2056,21.0,51,76,3.37,BR,1683740566
109,gidam,18.9833,81.4,29.33,49,84,1.82,IN,1683740566
110,poronaysk,49.2167,143.1167,0.18,85,87,1.26,RU,1683740567
111,kapuskasing,49.4169,-82.4331,20.05,30,100,4.63,CA,1683740567
112,sandnessjoen,66.0217,12.6316,15.29,51,0,1.03,NO,1683740567
113,namtsy,62.7161,129.6658,2.59,90,96,5.55,RU,1683740568
114,sungai penuh,-2.0833,101.3833,19.47,94,100,2.05,ID,1683740568
115,bonne terre,37.9231,-90.5554,25.76,52,95,3.82,US,1683740568
116,mareeba,-17.0,145.4333,16.4,97,1,1.08,AU,1683740569
117,midvagur,62.0511,-7.1939,10.46,87,100,3.09,FO,1683740569
118,taroa,8.7058,171.2275,27.66,83,59,7.26,MH,1683740569
119,ar ruways,24.1103,52.7306,30.16,42,0,3.26,AE,1683740569
120,atafu village,-8.5421,-172.5159,29.3,76,65,6.86,TK,1683740570
121,erenhot,43.6475,111.9767,15.82,38,100,6.02,CN,1683740570
122,shimoda,34.6667,138.95,15.61,69,89,2.71,JP,1683740570
123,la passe,45.5549,-0.8967,16.13,75,41,6.34,FR,1683740570
124,whitehorse,60.7161,-135.0538,9.45,39,40,7.2,CA,1683740571
125,dapa,9.7594,126.0531,27.36,74,25,0.98,PH,1683740571
126,saint-philippe,-21.3585,55.7679,23.77,89,50,3.54,RE,1683740571
127,patnanungan,14.7833,122.1833,26.4,85,72,3.35,PH,1683740571
128,guiuan,11.0333,125.7247,24.31,96,55,0.92,PH,1683740572
129,swift current,50.2834,-107.8014,15.45,58,0,2.57,CA,1683740572
130,sisimiut,66.9395,-53.6735,1.77,71,32,6.73,GL,1683740572
131,west island,-12.1568,96.8225,25.99,94,40,6.69,CC,1683740573
132,jamestown,42.097,-79.2353,19.73,39,0,1.54,US,1683740550
133,ugoofaaru,5.6667,73.0,28.82,74,100,3.62,MV,1683740573
134,haiku-pauwela,20.9219,-156.3051,23.36,77,40,5.14,US,1683740573
135,badger,64.8,-147.5333,10.14,54,75,0.0,US,1683740574
136,arris,35.2588,6.3471,19.5,39,65,2.57,DZ,1683740579
137,hawaiian paradise park,19.5933,-154.9731,22.72,93,20,2.57,US,1683740579
138,frenda,35.0654,1.0495,24.43,38,6,6.96,DZ,1683740580
139,onega,63.9061,38.1404,10.61,61,95,1.61,RU,1683740580
140,ambovombe,-25.1667,46.0833,22.21,89,2,5.1,MG,1683740580
141,villa regina,-39.1,-67.0667,17.21,20,99,6.28,AR,1683740580
142,troitsk,54.0979,61.5773,5.01,87,64,4.02,RU,1683740581
143,revda,56.801,59.9303,5.68,47,65,1.08,RU,1683740581
144,rawlins,41.7911,-107.2387,19.08,42,0,5.66,US,1683740581
145,pamekasan,-7.1568,113.4746,25.65,91,93,2.91,ID,1683740582
146,tocopilla,-22.092,-70.1979,22.65,66,11,3.41,CL,1683740582
147,zhongshu,24.5167,103.7667,16.03,96,89,2.72,CN,1683740582
148,saint-pierre,-21.3393,55.4781,23.82,73,0,2.06,RE,1683740583
149,essaouira,31.5125,-9.77,29.72,28,0,7.2,MA,1683740583
150,gaigeturi,33.4644,126.3183,15.03,51,0,0.51,KR,1683740583
151,duyun,26.2667,107.5167,14.68,99,100,1.73,CN,1683740444
152,inonu,37.3167,33.7667,18.94,41,83,3.29,TR,1683740584
153,usinsk,65.9939,57.5281,-1.56,85,99,3.23,RU,1683740584
154,biltine,14.5333,20.9167,32.36,36,100,6.68,TD,1683740584
155,manicore,-5.8092,-61.3003,28.97,84,75,1.54,BR,1683740585
156,al hufuf,25.3646,49.5653,34.19,10,0,1.54,SA,1683740585
157,vorgashor,67.5833,63.95,-4.95,94,100,2.3,RU,1683740585
158,stanley,54.868,-1.6985,14.28,73,40,5.14,GB,1683740586
159,dudinka,69.4058,86.1778,-22.17,97,48,2.72,RU,1683740586
160,sale,34.0389,-6.8166,25.91,78,71,5.14,MA,1683740587
161,orapa,-21.2833,25.3667,22.21,35,33,1.75,BW,1683740587
162,batticaloa,7.7102,81.6924,26.75,84,97,4.24,LK,1683740588
163,anadyr,64.75,177.4833,-1.72,86,0,1.0,RU,1683740588
164,"laikit, laikit ii (dimembe)",1.4792,124.9735,24.47,94,40,0.51,ID,1683740589
165,pierre,44.3683,-100.351,22.38,61,0,5.14,US,1683740455
166,sint michiel liber,12.15,-68.9833,29.9,66,20,8.23,CW,1683740589
167,la paz,-16.5,-68.15,14.76,36,92,0.89,BO,1683740585
168,chibougamau,49.9168,-74.3659,16.79,34,0,6.17,CA,1683740421
169,sur,22.5667,59.5289,31.65,49,0,5.08,OM,1683740590
170,rikaze,29.25,88.8833,5.61,31,2,2.05,CN,1683740590
171,hermanus,-34.4187,19.2345,17.67,91,49,2.37,ZA,1683740591
172,cabo san lucas,22.8909,-109.9124,30.61,32,0,5.14,MX,1683740437
173,nar'yan-mar,67.6713,53.087,-2.77,85,97,0.22,RU,1683740591
174,tiquipaya,-17.3382,-66.2189,21.1,25,98,1.34,BO,1683740591
175,richards bay,-28.783,32.0377,19.54,91,44,1.45,ZA,1683740592
176,tura,25.5198,90.2201,25.08,63,30,1.98,IN,1683740592
177,galle,6.0367,80.217,27.94,79,100,5.91,LK,1683740592
178,grahamstown,-33.3042,26.5328,14.42,30,44,1.94,ZA,1683740592
179,ust-nera,64.5667,143.2,-1.61,81,100,3.02,RU,1683740593
180,zeya,53.75,127.2667,5.2,65,21,1.35,RU,1683740593
181,la'ie,21.6477,-157.9253,24.98,76,24,2.68,US,1683740344
182,petropavlovsk-kamchatsky,53.0452,158.6483,0.33,93,100,1.0,RU,1683740594
183,ulaangom,49.9811,92.0667,10.75,67,74,1.11,MN,1683740594
184,timbuktu,16.7735,-3.0074,38.54,7,99,4.54,ML,1683740594
185,lihue,21.9789,-159.3672,22.77,82,100,4.63,US,1683740595
186,constantia,44.1833,28.65,8.38,71,3,3.26,RO,1683740595
187,mumford,5.2618,-0.759,28.55,75,98,5.61,GH,1683740595
188,longyearbyen,78.2186,15.6401,-0.09,86,100,6.69,SJ,1683740596
189,la ronge,55.1001,-105.2842,21.12,28,75,2.57,CA,1683740596
190,tsiombe,-25.3,45.4833,22.37,91,11,5.0,MG,1683740596
191,bodo,67.28,14.405,13.3,63,75,5.14,NO,1683740596
192,holualoa,19.6228,-155.9522,21.91,87,40,3.09,US,1683740597
193,saipan,15.1355,145.701,27.39,100,75,2.57,MP,1683740597
194,constitucion,-35.3333,-72.4167,19.92,43,100,3.13,CL,1683740597
195,wynyard,-41.0,145.7167,7.81,83,0,1.76,AU,1683740598
196,soio,-6.1349,12.3689,27.19,88,23,3.72,AO,1683740598
197,ngaoundere,7.3167,13.5833,23.94,83,20,3.6,CM,1683740598
198,punta arenas,-53.15,-70.9167,7.06,76,75,8.23,CL,1683740419
199,bandarbeyla,9.4942,50.8122,27.69,86,94,3.4,SO,1683740599
200,gadzhiyevo,69.2551,33.3362,2.78,100,100,4.37,RU,1683740599
201,coquimbo,-29.9533,-71.3436,14.85,82,20,2.06,CL,1683740599
202,godean,-7.7697,110.2939,24.53,95,81,0.86,ID,1683740599
203,flying fish cove,-10.4217,105.6791,26.82,89,100,5.66,CX,1683740600
204,bredasdorp,-34.5322,20.0403,15.51,78,56,2.96,ZA,1683740600
205,hutchinson island south,27.2995,-80.2205,32.27,58,40,3.6,US,1683740600
206,east london,-33.0153,27.9116,19.52,88,0,3.09,ZA,1683740601
207,gremyachevo,54.7503,38.5869,7.75,67,71,3.01,RU,1683740601
208,itaituba,-4.2761,-55.9836,31.09,79,40,1.03,BR,1683740601
209,tambopata,-12.7333,-69.1833,25.94,50,75,1.54,PE,1683740601
210,mount gambier,-37.8333,140.7667,7.08,93,0,2.49,AU,1683740602
211,ciudad melchor muzquiz,27.8833,-101.5167,30.29,39,8,2.33,MX,1683740602
212,taguatinga,-12.3857,-46.5711,34.38,29,49,2.22,BR,1683740602
213,bilibino,68.0546,166.4372,-1.94,89,100,1.22,RU,1683740603
214,colonia,50.9333,6.95,16.65,76,75,2.06,DE,1683740418
215,lerwick,60.1545,-1.1494,8.0,88,62,3.82,GB,1683740603
216,conduaga,8.862,117.4893,26.33,85,79,1.38,PH,1683740604
217,nuuk,64.1835,-51.7216,5.34,60,75,5.66,GL,1683740604
218,polyarnyy,69.1989,33.4478,3.07,100,100,4.64,RU,1683740604
219,le vauclin,14.5452,-60.8388,29.03,65,100,8.75,MQ,1683740605
220,naduvattam,11.4833,76.5667,14.54,90,82,1.19,IN,1683740605
221,bethanie,-26.4833,17.15,23.05,22,85,2.63,NA,1683740605
222,lodja,-3.4833,23.4333,21.97,91,86,0.87,CD,1683740606
223,tyuratam,45.6507,63.3156,27.16,13,100,3.97,KZ,1683740606
224,cartagena,10.3997,-75.5144,29.79,74,75,5.66,CO,1683740356
225,fonte boa,-2.4959,-66.2662,24.4,98,100,0.89,BR,1683740607
226,lincoln,40.8,-96.667,25.71,67,0,1.34,US,1683740567
227,mejit,10.2753,170.8646,27.48,81,85,9.05,MH,1683740609
228,kavaratti,10.5669,72.642,29.74,68,71,3.74,IN,1683740609
229,visby,57.6409,18.296,15.12,31,0,6.69,SE,1683740609
230,las heras,-46.5419,-68.9359,8.81,72,100,6.69,AR,1683740610
231,laguna,38.421,-121.4238,18.12,63,40,6.17,US,1683740610
232,ujae,8.9322,165.7642,27.7,79,97,3.99,MH,1683740611
233,antsiranana,-12.2787,49.2917,25.33,80,5,6.5,MG,1683740611
234,kannur,11.8675,75.3576,28.17,85,98,3.07,IN,1683740338
235,itoman,26.1247,127.6694,21.43,60,20,3.6,JP,1683740612
236,tralee,52.2704,-9.7026,11.24,85,72,6.48,IE,1683740573
237,thames,-37.1333,175.5333,10.23,85,83,6.6,NZ,1683740612
238,carnarvon,-24.8667,113.6333,20.28,77,7,9.05,AU,1683740613
239,pacasmayo,-7.4006,-79.5714,25.34,73,40,6.49,PE,1683740613
240,nogliki,51.8333,143.1667,-0.28,97,100,2.99,RU,1683740613
241,yantarnyy,54.8717,19.9381,15.92,72,33,5.17,RU,1683740613
242,campo gallo,-26.5833,-62.85,27.0,30,0,1.62,AR,1683740614
243,sitka,57.0531,-135.33,9.94,71,40,3.6,US,1683740614
244,adra,36.7496,-3.0206,26.32,71,41,1.75,ES,1683740614
245,solnechnyy,50.7214,136.6319,1.11,67,19,1.05,RU,1683740614
246,ta`u,-14.2336,-169.5144,27.75,72,30,6.19,AS,1683740615
247,sinop,41.7711,34.8709,7.38,98,100,1.39,TR,1683740615
248,uturoa,-16.7333,-151.4333,28.33,74,94,9.87,PF,1683740615
249,marang,5.2056,103.2059,27.95,87,93,1.58,MY,1683740616
250,faya-largeau,17.9257,19.1043,35.78,6,56,4.24,TD,1683740616
251,qa'en,33.7265,59.1844,22.88,29,94,3.39,IR,1683740616
252,tolanaro,-25.0319,46.9987,23.04,88,40,6.17,MG,1683740616
253,dakhla,23.6848,-15.958,21.01,83,33,10.29,EH,1683740617
254,santo antonio,-6.3106,-35.4789,29.08,62,68,3.71,BR,1683740617
255,vadso,70.0744,29.7487,8.49,81,0,3.6,NO,1683740617
256,ceelbuur,4.685,46.6176,30.28,53,95,6.76,SO,1683740618
257,acapulco de juarez,16.8634,-99.8901,30.9,74,0,5.66,MX,1683740360
258,geraldton,-28.7667,114.6,16.23,77,100,3.09,AU,1683740618
259,ad dilam,23.9915,47.1627,35.23,12,0,5.5,SA,1683740618
260,kilindoni,-7.9139,39.6668,27.24,74,28,5.67,TZ,1683740619
261,pagar alam,-4.0167,103.2667,20.52,97,89,0.93,ID,1683740619
262,labrador city,52.9463,-66.9114,6.95,31,20,6.17,CA,1683740619
263,sao jose da coroa grande,-8.8978,-35.1478,27.98,70,42,3.23,BR,1683740619
264,kolonia,50.9333,6.95,16.65,76,75,2.06,DE,1683740620
265,smithers,54.7804,-127.1743,11.18,54,75,2.06,CA,1683740495
266,tazovsky,67.4667,78.7,-10.39,91,99,5.97,RU,1683740149
267,storvreta,59.9667,17.7,14.99,36,91,7.2,SE,1683740620
268,bardai,11.65,7.2333,32.46,23,98,2.89,NG,1683740621
269,masterton,-40.9597,175.6575,11.05,87,35,3.3,NZ,1683740621
270,ghanzi,-21.5667,21.7833,19.84,34,0,3.63,BW,1683740621
271,zhezqazghan,47.7833,67.7667,21.62,18,95,4.1,KZ,1683740621
272,verkhnevilyuysk,63.4453,120.3167,-2.34,88,26,2.0,RU,1683740622
273,butembo,0.15,29.2833,14.95,97,89,1.15,CD,1683740622
274,vilhena,-12.7406,-60.1458,28.12,54,40,4.12,BR,1683740622
275,duong dong,10.2167,103.9667,27.0,94,20,1.03,VN,1683740622
276,cape coast,5.1053,-1.2466,28.99,79,92,7.22,GH,1683740623
277,turaif,31.6725,38.6637,28.14,11,0,2.06,SA,1683740623
278,luderitz,-26.6481,15.1594,15.9,75,63,3.01,NA,1683740623
279,yei,4.095,30.6779,20.63,93,92,0.55,SS,1683740623
280,les sables-d'olonne,46.6667,-1.8333,14.44,78,80,7.25,FR,1683740624
281,inarajan village,13.2736,144.7484,27.54,96,74,3.2,GU,1683740624
282,pisco,-13.7,-76.2167,24.03,64,0,7.2,PE,1683740624
283,darwin,-12.4611,130.8418,21.99,58,95,3.6,AU,1683740624
284,noshiro,40.2039,140.0242,7.13,79,0,1.24,JP,1683740625
285,berezovyy,51.6667,135.7,2.55,58,1,1.07,RU,1683740625
286,filadelfia,39.9523,-75.1638,22.9,39,0,3.09,US,1683740409
287,lewiston orchards,46.3804,-116.9754,17.29,71,20,0.0,US,1683740625
288,tindouf,27.6711,-8.1474,39.25,6,75,3.09,DZ,1683740626
289,port lincoln,-34.7333,135.8667,13.89,60,0,5.52,AU,1683740631
290,waat,51.1454,6.4958,16.62,84,75,3.09,DE,1683740631
291,varzea da palma,-17.5981,-44.7308,32.42,30,85,0.72,BR,1683740632
292,pemangkat,1.1667,108.9667,26.73,84,86,1.26,ID,1683740632
293,malanje,-9.5402,16.341,18.85,58,1,0.71,AO,1683740632
294,ndende,-2.4008,11.3581,24.57,94,82,0.4,GA,1683740633
295,ginir,7.1333,40.7,14.39,94,70,2.1,ET,1683740634
296,palmer,42.1584,-72.3287,22.1,25,40,3.09,US,1683740559
297,bonga,7.2833,36.2333,16.57,99,98,1.03,ET,1683740634
298,bogale,16.2833,95.4,28.82,73,94,2.41,MM,1683740634
299,isafjordur,66.0755,-23.124,7.02,87,20,4.63,IS,1683740635
300,port blair,11.6667,92.75,28.39,79,100,8.77,IN,1683740635
301,kerikeri,-35.2268,173.9474,10.51,92,43,4.89,NZ,1683740635
302,changji,44.0167,87.3167,20.44,19,0,4.0,CN,1683740636
303,pudasjarvi,65.3833,26.9167,10.84,53,100,4.67,FI,1683740636
304,touros,-5.1989,-35.4608,28.94,66,32,6.28,BR,1683740636
305,berdigestyakh,62.0989,126.6992,0.28,90,100,3.5,RU,1683740637
306,klyuchi,52.2667,79.1667,12.96,47,59,4.16,RU,1683740637
307,kasempa,-13.4584,25.8338,16.82,53,57,1.76,ZM,1683740637
308,lander,42.833,-108.7307,15.44,35,100,0.0,US,1683740643
309,khandud,36.9513,72.318,0.75,49,17,1.39,AF,1683740643
310,ebon,4.582,168.6964,28.5,80,81,6.0,MH,1683740644
311,nelson,-41.2833,173.2833,6.83,94,70,0.89,NZ,1683740413
312,buka,40.8108,69.1986,22.79,26,99,2.8,UZ,1683740644
313,pandua,23.0833,88.2833,29.28,70,68,5.72,IN,1683740645
314,soligalich,59.0778,42.2864,8.69,73,82,0.47,RU,1683740645
315,bel ombre,-4.6167,55.4167,28.91,70,20,6.17,SC,1683740645
316,broken hill,-31.95,141.4333,9.54,71,0,3.23,AU,1683740646
317,minas de marcona,-15.2119,-75.1103,20.65,58,35,6.35,PE,1683740646
318,marsh harbour,26.5412,-77.0636,25.47,67,0,3.59,BS,1683740646
319,mossel bay,-34.1831,22.146,19.96,59,6,3.6,ZA,1683740646
320,palu,-0.8917,119.8707,24.91,93,80,1.49,ID,1683740647
321,tazacorte,28.629,-17.9293,23.54,64,0,5.66,ES,1683740647
322,polyarnyye zori,67.3661,32.4981,1.61,100,100,1.7,RU,1683740648
323,qalat,32.1058,66.9083,23.47,14,100,3.31,AF,1683740648
324,the pas,53.8251,-101.2541,19.01,45,0,4.63,CA,1683740648
325,cooma,-36.2333,149.1333,2.4,96,0,0.31,AU,1683740649
326,caconda,-13.7333,15.0667,17.07,43,4,1.66,AO,1683740649
327,hadibu,12.65,54.0333,29.26,63,86,2.0,YE,1683740649
328,praia da vitoria,38.7333,-27.0667,21.14,73,40,5.31,PT,1683740650
329,brisas de zicatela,15.8369,-97.0419,32.29,66,0,6.17,MX,1683740650
330,zhangye,38.9342,100.4517,12.59,35,98,2.01,CN,1683740650
331,mar del plata,-38.0023,-57.5575,14.49,74,100,3.09,AR,1683740650
332,dalbandin,28.8947,64.4101,31.92,5,38,2.39,PK,1683740651
333,nemuro,43.3236,145.575,4.24,91,40,3.74,JP,1683740651
334,kindu,-2.95,25.95,22.18,99,100,0.58,CD,1683740651
335,kaa-khem,51.6833,94.7333,8.29,71,98,4.02,RU,1683740652
336,atoyac de alvarez,17.2,-100.4333,34.66,41,9,4.24,MX,1683740386
337,mount isa,-20.7333,139.5,11.87,32,0,3.09,AU,1683740652
338,illapel,-31.6308,-71.1653,29.16,17,15,2.33,CL,1683740653
339,as sulayyil,20.4607,45.5779,34.14,13,0,4.33,SA,1683740653
340,trinidad,-14.8333,-64.9,27.84,53,99,1.79,BO,1683740653
341,lichuan,30.3,108.85,10.79,98,100,0.63,CN,1683740654
342,uba,-21.12,-42.9428,26.21,69,94,1.42,BR,1683740654
343,zemio,5.0314,25.1361,22.36,84,100,1.28,CF,1683740654
344,fort st. john,56.2499,-120.8529,14.94,47,75,2.06,CA,1683740371
345,lautoka,-17.6167,177.4667,20.92,94,20,1.54,FJ,1683740655
346,galliano,29.4422,-90.2992,29.44,69,100,3.6,US,1683740656
347,boguchany,58.3814,97.4531,0.15,73,14,1.19,RU,1683740656
348,aykhal,66.0,111.5,-17.74,90,14,2.56,RU,1683740657
349,gazojak,41.1875,61.4036,28.6,13,100,4.56,TM,1683740657
350,kamaishi,39.2667,141.8833,7.68,69,0,3.31,JP,1683740658
351,pionerskiy,54.9508,20.2275,15.91,73,37,4.95,RU,1683740658
352,osakarovka,50.565,72.5692,16.24,48,100,5.07,KZ,1683740658
353,salekhard,66.53,66.6019,-6.25,94,95,2.63,RU,1683740606
354,pembroke,45.8168,-77.1162,21.99,30,4,4.07,CA,1683740659
355,bikenibeu village,1.3673,173.1241,28.19,80,72,5.91,KI,1683740659
356,malango,-2.9627,119.9001,20.69,99,100,0.52,ID,1683740659
357,brookings,44.3114,-96.7984,22.99,66,0,3.09,US,1683740660
358,yarmouth,41.7057,-70.2286,21.19,34,0,4.63,US,1683740556
359,mantsala,60.6609,25.2838,15.82,49,74,2.71,FI,1683740660
360,tuensang,26.2833,94.8333,19.78,58,20,1.52,IN,1683740660
361,akureyri,65.6835,-18.0878,5.96,87,100,5.66,IS,1683740661
362,khorixas,-20.3667,14.9667,25.96,22,3,2.74,NA,1683740661
363,sidney,-33.8679,151.2073,12.93,82,75,4.12,AU,1683740482
364,miranda do douro,41.4969,-6.2731,19.2,32,84,3.23,PT,1683740662
365,saint croix,17.7397,-64.7388,30.25,69,40,5.14,VI,1683740662
366,catio,11.2833,-15.25,30.13,57,95,4.34,GW,1683740663
367,domodossola,46.1165,8.2931,16.47,91,100,1.96,IT,1683740663
368,strabane,54.8237,-7.4692,14.97,74,73,4.8,GB,1683740663
369,kurmuk,10.55,34.2833,30.4,34,93,1.22,SD,1683740664
370,puerto armuelles,8.2833,-82.8667,32.99,66,69,4.41,PA,1683740664
371,correntina,-13.3433,-44.6367,34.11,27,34,2.1,BR,1683740664
372,amga,60.8953,131.9608,0.74,92,23,2.52,RU,1683740665
373,okhotsk,59.3833,143.3,-0.61,96,22,3.08,RU,1683740665
374,kokstad,-30.5472,29.4241,11.39,61,0,1.84,ZA,1683740665
375,pilar,-9.5972,-35.9567,29.96,61,67,3.79,BR,1683740666
376,kristiansund,63.1115,7.732,12.03,82,75,1.54,NO,1683740666
377,betio village,1.358,172.9211,28.23,80,70,6.02,KI,1683740666
378,karratha,-20.7377,116.8463,23.29,38,81,2.11,AU,1683740666
379,tadine,-21.55,167.8833,22.23,73,95,5.77,NC,1683740667
380,dire dawa,9.5931,41.8661,24.8,64,100,0.93,ET,1683740667
381,kapit,2.0167,112.9333,23.6,94,96,0.17,MY,1683740667
382,prado,-17.3411,-39.2208,26.37,69,94,3.34,BR,1683740668
383,huarmey,-10.0681,-78.1522,24.93,73,51,4.85,PE,1683740668
384,dangriga,16.9692,-88.2321,28.34,77,92,5.19,BZ,1683740668
385,antigonish,45.6169,-61.9986,9.64,65,60,1.79,CA,1683740669
386,cooper's town,26.8667,-77.5167,24.82,69,1,1.69,BS,1683740669
387,kuqa,41.7278,82.9364,18.56,13,17,2.57,CN,1683740669
388,alekseyevskoye,55.3071,50.1135,10.8,58,96,3.06,RU,1683740669
389,adam,22.3756,57.5233,31.1,21,0,4.69,OM,1683740670
390,usogorsk,63.4106,48.6872,0.94,82,40,2.13,RU,1683740670
391,alo,7.4178,6.7371,31.5,56,72,3.11,NG,1683740670
392,kasane,-17.8167,25.15,20.05,64,0,2.06,BW,1683740671
393,rio preto da eva,-2.6994,-59.6997,27.39,94,99,1.08,BR,1683740671
394,katsuura,35.1333,140.3,15.65,73,100,4.68,JP,1683740671
395,waounde,15.2637,-12.8682,39.88,17,96,3.51,SN,1683740671
396,boli,45.7667,130.5167,7.74,59,24,1.85,CN,1683740672
397,yeroham,30.9872,34.9314,20.99,50,33,4.43,IL,1683740672
398,olonkinbyen,70.9221,-8.7187,0.8,99,100,5.18,SJ,1683740672
399,cannonvale,-20.2833,148.7,20.66,75,58,5.69,AU,1683740672
400,puerto baquerizo moreno,-0.9,-89.6,28.55,79,75,6.17,EC,1683740673
401,xinyuan,37.3,99.0,-6.18,94,100,1.4,CN,1683740673
402,san patricio,28.017,-97.5169,29.92,64,80,2.16,US,1683740673
403,clarkston heights-vineland,46.3874,-117.083,17.81,74,20,0.0,US,1683740673
404,cadale,2.7603,46.3222,27.31,79,45,7.97,SO,1683740674
405,nanfeng,23.7434,111.7959,22.17,98,100,0.88,CN,1683740674
406,sungai raya,0.7,108.9,26.59,82,87,0.64,ID,1683740674
407,dhuusamarreeb,5.535,46.3861,31.03,46,97,5.3,SO,1683740674
408,timmins,48.4669,-81.3331,20.9,26,75,4.12,CA,1683740504
409,molde,62.7375,7.1591,12.62,87,75,3.09,NO,1683740675
410,yebaishou,41.3975,119.6408,14.24,38,62,1.99,CN,1683740675
411,sarmiento,-45.5882,-69.07,9.72,73,100,5.58,AR,1683740676
412,tongliao,43.6125,122.2653,11.25,25,1,3.22,CN,1683740676
413,pamandzi,-12.7967,45.2794,26.88,83,0,2.57,YT,1683740676
414,veraval,20.9,70.3667,30.33,54,23,5.55,IN,1683740677
415,moussoro,13.6408,16.4901,35.55,10,46,1.75,TD,1683740678
416,coyhaique,-45.5752,-72.0662,5.97,93,100,0.0,CL,1683740678
417,ahmadnagar,19.0833,74.7333,32.68,21,60,3.56,IN,1683740679
418,ak'ordat,15.5486,37.8867,34.28,15,23,3.22,ER,1683740679
419,tailai,46.3833,123.4,11.02,22,0,3.93,CN,1683740679
420,san andres,12.5847,-81.7006,32.01,66,20,7.2,CO,1683740680
421,coromandel,-18.4733,-47.2003,27.18,43,93,1.09,BR,1683740616
422,howrah,22.5892,88.3103,30.0,79,40,6.17,IN,1683740680
423,khabarovsk,48.4808,135.0928,3.89,75,0,3.13,RU,1683740681
424,beyla,8.6833,-8.6333,22.62,88,100,1.94,GN,1683740681
425,nelson bay,-32.7167,152.15,13.33,94,37,4.47,AU,1683740681
426,coahuayana de hidalgo,18.7,-103.6583,33.46,45,2,3.14,MX,1683740682
427,oodweyne,9.4092,45.064,26.22,57,99,6.7,SO,1683740682
428,tierp,60.3427,17.5181,16.09,36,76,4.91,SE,1683740682
429,novovolyns'k,50.7258,24.1626,7.5,75,46,3.83,UA,1683740682
430,ruayer,43.0537,-5.5502,10.44,86,55,3.16,ES,1683740683
431,doctor mora,21.1417,-100.3125,26.35,15,0,5.63,MX,1683740683
432,manokwari,-0.8667,134.0833,26.04,83,100,1.03,ID,1683740683
433,new plymouth,-39.0667,174.0833,9.75,100,100,13.24,NZ,1683740521
434,ghat,24.9647,10.1728,25.8,24,69,5.09,LY,1683740684
435,ambon,-3.6954,128.1814,25.69,15,40,2.06,ID,1683740684
436,lido di jesolo,45.5069,12.6469,13.51,93,100,8.37,IT,1683740684
437,puerto deseado,-47.7503,-65.8938,10.13,69,100,12.18,AR,1683740684
438,taitung city,22.7583,121.1444,21.66,77,58,2.2,TW,1683740685
439,novo aripuana,-5.1206,-60.3797,32.2,57,91,0.6,BR,1683740685
440,cockburn town,21.4612,-71.1419,26.91,81,17,5.28,TC,1683740685
441,zhirnovsk,50.9845,44.7735,9.55,54,99,2.66,RU,1683740686
442,katsuren-haebaru,26.3369,127.8719,21.43,60,0,4.12,JP,1683740686
443,nouadhibou,20.931,-17.0347,19.99,83,19,9.26,MR,1683740686
444,sao joao da pesqueira,41.1108,-7.4338,20.29,34,97,4.61,PT,1683740686
445,youhao,47.8667,128.8333,3.95,54,40,0.78,CN,1683740687
446,ola,59.5833,151.2833,0.36,88,40,1.77,RU,1683740687
447,happy valley-goose bay,53.3168,-60.3315,5.17,33,75,9.26,CA,1683740687
448,villa gesell,-37.2639,-56.973,13.36,68,62,7.93,AR,1683740688
449,mombetsu,44.3525,143.3525,2.73,92,76,2.08,JP,1683740688
450,fisterra,42.9049,-9.2629,18.34,70,16,8.15,ES,1683740688
451,nabire,-3.3667,135.4833,25.39,89,100,1.21,ID,1683740688
452,itabira,-19.6192,-43.2269,25.89,55,92,1.01,BR,1683740689
453,puerto leguizamo,-0.1934,-74.7819,24.29,94,99,2.0,CO,1683740689
454,champoton,19.35,-90.7167,35.7,39,15,0.44,MX,1683740689
455,alesund,62.4723,6.1549,12.73,92,75,3.09,NO,1683740689
456,safaga,26.7292,33.9365,26.05,45,11,1.41,EG,1683740690
457,kingston,17.997,-76.7936,32.53,65,20,11.32,JM,1683740449
458,alaghsas,17.0187,8.0168,40.94,15,0,2.06,NE,1683740690
459,morehead city,34.7229,-76.726,24.01,62,20,5.81,US,1683740690
460,pacific grove,36.6177,-121.9166,13.9,75,100,3.09,US,1683740691
461,codrington,-38.2667,141.9667,7.47,90,1,3.68,AU,1683740691
462,hami,42.8,93.45,19.06,19,0,3.3,CN,1683740691
463,bakhchysarai,44.75,33.8667,10.58,66,52,2.06,UA,1683740691
464,tamanrasset,22.785,5.5228,30.95,10,65,2.06,DZ,1683740692
465,acarau,-2.8856,-40.12,28.11,79,61,4.7,BR,1683740692
466,island harbour,50.724,-1.2758,16.29,82,76,1.34,GB,1683740693
467,olyokminsk,60.3736,120.4264,1.29,92,100,2.29,RU,1683740693
468,souillac,-20.5167,57.5167,26.21,73,75,5.66,MU,1683740693
469,barra do corda,-5.5,-45.25,32.39,51,61,2.22,BR,1683740693
470,arno,60.1167,18.6333,7.1,49,93,5.13,SE,1683740694
471,pangody,65.85,74.4859,-4.4,94,99,7.38,RU,1683740694
472,sabha,27.0377,14.4283,24.11,32,0,7.28,LY,1683740694
473,birao,10.2849,22.7882,36.16,23,83,2.67,CF,1683740694
474,eisenstadt,47.8457,16.5233,18.33,47,100,3.52,AT,1683740695
475,calvinia,-31.4707,19.776,19.72,20,33,2.69,ZA,1683740695
476,concepcion,-36.827,-73.0498,13.89,88,100,2.57,CL,1683740478
477,reggane,26.7158,0.1714,35.25,10,4,1.9,DZ,1683740695
478,suntar,62.1444,117.6319,-1.19,86,56,1.78,RU,1683740696
479,valozhyn,54.0909,26.5225,8.34,62,41,1.37,BY,1683740696
480,portland,45.5234,-122.6762,19.18,66,0,2.24,US,1683740313
481,novouzensk,50.4592,48.1431,13.36,48,89,3.17,RU,1683740696
482,ulladulla,-35.35,150.4667,5.43,81,66,2.13,AU,1683740697
483,berea,41.3662,-81.8543,22.74,36,20,3.6,US,1683740697
484,batouri,4.4333,14.3667,24.96,74,89,1.67,CM,1683740697
485,mao,39.8885,4.2658,18.31,59,20,4.63,ES,1683740698
486,isangel,-19.55,169.2667,24.31,75,66,5.45,VU,1683740698
487,hemsby,52.6971,1.6918,16.9,92,67,4.26,GB,1683740698
488,dingras,18.1032,120.6967,24.92,83,31,2.5,PH,1683740698
489,ancud,-41.8697,-73.8203,12.49,96,100,3.08,CL,1683740699
490,el nido,11.1858,119.3956,27.71,79,96,1.1,PH,1683740699
491,kotri,25.366,68.3122,32.28,26,0,5.72,PK,1683740699
492,juneau,58.3019,-134.4197,12.0,81,75,2.06,US,1683740700
493,quepos,9.4236,-84.1652,31.5,60,28,3.37,CR,1683740700
494,mahina,-17.5065,-149.489,25.87,83,75,1.54,PF,1683740700
495,tobruk,32.0836,23.9764,19.65,77,100,8.15,LY,1683740701
496,delta del tigre,-34.7633,-56.3853,16.23,82,75,6.69,UY,1683740701
497,toliara,-23.35,43.6667,23.94,79,45,0.83,MG,1683740702
498,kavieng,-2.5744,150.7967,28.02,76,100,1.26,PG,1683740702
499,margate,51.3813,1.3862,16.5,71,43,1.79,GB,1683740703
500,port douglas,-16.4833,145.4667,21.93,76,76,2.95,AU,1683740703
501,dawson creek,55.7666,-120.2362,14.8,47,20,0.0,CA,1683740704
502,fort bragg,35.139,-79.006,25.67,34,0,5.66,US,1683740704
503,arteche,12.2645,125.4048,26.21,88,94,1.1,PH,1683740704
504,realeza,-25.7689,-53.5325,23.03,38,14,2.05,BR,1683740705
505,mashhad,36.297,59.6062,27.08,36,75,3.09,IR,1683740705
506,champerico,14.3,-91.9167,33.3,65,28,4.28,GT,1683740705
507,sault ste. marie,46.5168,-84.3333,21.31,38,40,2.57,CA,1683740577
508,kirakira,-10.4544,161.9205,27.19,84,66,4.41,SB,1683740706
509,choyr,46.3611,108.3611,9.33,41,42,3.32,MN,1683740706
510,saint-francois,46.4154,3.9054,15.69,63,75,2.57,FR,1683740434
511,qarazhal,48.0078,70.7903,19.33,20,84,5.15,KZ,1683740707
512,tome acu,-2.4189,-48.1522,33.01,52,79,1.11,BR,1683740707
513,barcelos,41.5388,-8.6151,20.51,60,94,7.36,PT,1683740707
514,dolores,-36.3132,-57.6792,16.64,47,20,6.33,AR,1683740708
515,nagqu,31.5,92.0,-5.81,88,100,8.1,CN,1683740708
516,salym,60.0625,71.4789,6.44,77,92,2.53,RU,1683740709
517,fortuna,40.5982,-124.1573,14.4,78,100,0.45,US,1683740709
518,takoradi,4.8845,-1.7554,28.89,76,87,6.03,GH,1683740709
519,tshabong,-26.05,22.45,20.03,24,0,2.55,BW,1683740710
520,delhi,28.6667,77.2167,29.05,23,0,1.54,IN,1683740467
521,lucapa,-8.4192,20.7447,21.74,57,3,1.14,AO,1683740710
522,hotan,37.0997,79.9269,16.48,11,0,2.74,CN,1683740710
523,khanbari,27.3747,87.2039,19.82,30,5,2.33,NP,1683740711
524,al jawf,29.5,38.75,28.13,14,21,5.13,SA,1683740711
525,kuanda,56.3161,116.0806,11.36,58,100,2.24,RU,1683740711
526,bareilly,28.35,79.4167,28.9,14,0,2.28,IN,1683740712
527,victoria de durango,24.0333,-104.6667,25.6,15,0,5.81,MX,1683740712
528,yilan,24.757,121.753,21.62,99,9,1.24,TW,1683740713
529,castillos,-34.1667,-53.8333,18.88,50,0,6.75,UY,1683740713
530,deir ez-zor,35.3359,40.1408,28.89,19,57,2.32,SY,1683740713
531,tosontsengel,48.7567,98.2839,5.09,64,66,2.66,MN,1683740714
532,buala,-8.145,159.5921,27.09,85,80,3.99,SB,1683740714
533,selfoss,63.9331,-20.9971,11.69,68,82,3.17,IS,1683740714
534,colon,9.3592,-79.9014,30.26,68,59,3.28,PA,1683740714
535,muang phonsavan,19.45,103.2167,18.83,98,91,0.81,LA,1683740715
536,saint-joseph,-21.3667,55.6167,23.21,79,34,5.35,RE,1683740715
537,barakani,-12.1356,44.4317,26.42,78,23,3.7,KM,1683740715
538,taoudenni,22.6783,-3.9836,37.84,9,96,6.32,ML,1683740716
539,bastia,42.6667,9.3333,19.89,66,20,8.75,FR,1683740716
540,st. john's,47.5649,-52.7093,9.66,43,40,10.29,CA,1683740716
541,alupka,44.4167,34.05,11.92,72,40,1.05,UA,1683740717
542,pavlogradka,54.2024,73.5592,13.95,24,99,3.74,RU,1683740717
543,wenchang,30.904,118.4887,14.86,78,100,1.82,CN,1683740717
544,howard springs,-12.497,131.047,21.04,66,100,3.36,AU,1683740718
545,kone,-21.0595,164.8658,20.06,77,96,2.28,NC,1683740718
546,rome,34.257,-85.1647,29.65,55,0,3.09,US,1683740380
547,remire-montjoly,4.9167,-52.2667,26.02,89,75,2.06,GF,1683740719
548,benguela,-12.5763,13.4055,26.44,85,8,2.93,AO,1683740719
549,kuta,-8.7233,115.1723,26.97,94,20,6.26,ID,1683740719
550,lehliu-gara,44.4333,26.85,10.1,68,40,3.14,RO,1683740719
551,naracoorte,-36.9579,140.7383,8.4,88,0,3.31,AU,1683740720
552,nieuw amsterdam,5.8833,-55.0833,27.79,87,89,3.11,SR,1683740720
553,port-vila,-17.7338,168.3219,25.24,79,58,7.57,VU,1683740720
554,novoorsk,51.381,58.9813,7.36,86,37,6.57,RU,1683740721
555,kolosovka,56.4678,73.611,8.82,36,100,1.45,RU,1683740721
556,kapa'a,22.0752,-159.319,23.18,83,100,4.63,US,1683740619
557,yeosu,34.7546,127.6599,14.41,70,97,2.27,KR,1683740722
558,burgkirchen an der alz,48.1667,12.7333,12.63,78,100,2.91,DE,1683740722
559,sierra vista,31.5545,-110.3037,21.01,16,0,8.75,US,1683740477
560,tizimin,21.15,-88.15,37.91,28,90,5.34,MX,1683740723
561,arkalyk,50.2486,66.9114,18.86,32,59,0.68,KZ,1683740723
562,nizwa,22.9333,57.5333,29.95,17,0,1.03,OM,1683740724
563,hancheng,32.5186,112.3522,14.0,88,100,2.35,CN,1683740724
564,revelstoke,50.9832,-118.2023,14.01,62,0,1.03,CA,1683740725
565,hasaki,35.7333,140.8333,15.12,64,100,5.63,JP,1683740725
566,puerto aysen,-45.4,-72.7,8.02,100,100,3.6,CL,1683740726
567,nurota,40.5614,65.6886,24.47,21,91,1.69,UZ,1683740726
568,mount pearl,47.5166,-52.7813,9.42,43,75,12.35,CA,1683740484
569,kudahuvadhoo,2.6708,72.8944,27.99,80,46,6.14,MV,1683740727
570,suva,-18.1416,178.4415,20.71,94,20,2.06,FJ,1683740727
571,belmonte,-15.8631,-38.8828,27.19,66,85,4.93,BR,1683740727
572,maicanesti,45.5,27.5,13.25,54,94,1.91,RO,1683740728
