City_ID,City,Lat,Lng,Max Temp,Humidity,Cloudiness,Wind Speed,Country,Date
0,olonkinbyen,70.9221,-8.7187,0.08,86,56,6.57,SJ,1683852474
1,ingeniero jacobacci,-41.3427,-69.5448,9.62,68,90,4.27,AR,1683852475
2,luderitz,-26.6481,15.1594,15.14,78,100,10.8,NA,1683852476
3,stanley,54.868,-1.6985,9.84,97,75,3.6,GB,1683852476
4,salinopolis,-0.6136,-47.3561,25.78,85,35,2.39,BR,1683852194
5,vilyuchinsk,52.9306,158.4028,6.15,88,100,1.3,RU,1683852478
6,grytviken,-54.2811,-36.5092,-4.58,70,1,3.25,GS,1683852479
7,bandarbeyla,9.4942,50.8122,27.06,86,82,5.5,SO,1683852479
8,adamstown,-25.066,-130.1015,21.93,59,100,7.77,PN,1683852481
9,port elizabeth,-33.918,25.5701,16.17,97,100,7.2,ZA,1683852481
10,puerto baquerizo moreno,-0.9,-89.6,26.22,87,100,3.93,EC,1683852482
11,bungu,-7.6337,39.0582,21.45,98,27,1.21,TZ,1683852483
12,blackmans bay,-43.0167,147.3167,13.74,75,96,1.16,AU,1683852484
13,mount pearl,47.5166,-52.7813,5.19,59,20,9.77,CA,1683852485
14,edinburgh of the seven seas,-37.0676,-12.3116,17.02,85,80,12.34,SH,1683852485
15,buurhakaba,2.8026,44.0781,23.56,89,42,2.99,SO,1683852485
16,puerto ayora,-0.7393,-90.3518,26.42,95,95,0.89,EC,1683852380
17,klyuchi,52.2667,79.1667,10.05,68,97,4.43,RU,1683852487
18,bonthe,7.5264,-12.505,27.16,84,88,2.43,SL,1683852488
19,zouerate,22.7187,-12.4521,30.69,21,79,8.83,MR,1683852488
20,traverse city,44.7631,-85.6206,22.04,40,20,1.54,US,1683852489
21,port-aux-francais,-49.35,70.2167,8.35,89,100,20.3,TF,1683852490
22,ushuaia,-54.8,-68.3,9.81,62,75,5.66,AR,1683852379
23,hadibu,12.65,54.0333,28.25,73,100,0.71,YE,1683852492
24,bethel,41.3712,-73.414,20.93,56,14,1.76,US,1683852377
25,tura,25.5198,90.2201,28.24,47,5,0.88,IN,1683852493
26,badger,64.8,-147.5333,16.14,40,75,4.63,US,1683852493
27,whitecourt,54.1502,-115.6855,17.58,51,75,1.54,CA,1683852494
28,karratha,-20.7377,116.8463,25.37,22,0,7.93,AU,1683852495
29,hermanus,-34.4187,19.2345,8.78,75,92,6.56,ZA,1683852496
30,gadzhiyevo,69.2551,33.3362,2.44,100,100,2.73,RU,1683852496
31,kirensk,57.7853,108.1119,7.01,48,100,3.45,RU,1683852497
32,iqaluit,63.7506,-68.5145,-4.15,85,20,4.12,CA,1683852280
33,castillos,-34.1667,-53.8333,13.74,59,53,2.18,UY,1683852498
34,puerto natales,-51.7236,-72.4875,6.59,88,100,2.16,CL,1683852432
35,waitangi,-43.9535,-176.5597,10.46,80,69,0.89,NZ,1683852500
36,ribeira grande,38.5167,-28.7,16.54,84,42,1.34,PT,1683852500
37,yellowknife,62.456,-114.3525,19.29,27,75,4.63,CA,1683852384
38,aasiaat,68.7098,-52.8699,-3.22,93,100,4.15,GL,1683852503
39,novominskaya,46.3163,38.9586,6.31,85,0,1.43,RU,1683852503
40,eregli,37.5133,34.0467,14.78,62,89,2.25,TR,1683852505
41,talnakh,69.4865,88.3972,-14.33,85,46,4.98,RU,1683852505
42,hithadhoo,-0.6,73.0833,28.51,75,100,7.19,MV,1683852506
43,kailua-kona,19.6406,-155.9956,28.98,88,40,6.69,US,1683852507
44,kapuskasing,49.4169,-82.4331,19.05,59,20,4.63,CA,1683852508
45,tolanaro,-25.0319,46.9987,22.04,94,40,3.09,MG,1683852509
46,college,64.8569,-147.8028,16.18,41,75,4.63,US,1683852212
47,la ronge,55.1001,-105.2842,22.14,24,40,2.57,CA,1683852510
48,bemidji,47.4736,-94.8803,26.05,34,0,3.09,US,1683852511
49,greenland,43.0362,-70.8328,21.37,59,20,2.06,US,1683852512
50,oxford,51.7522,-1.256,10.09,95,11,1.03,GB,1683852255
51,skagen,57.7209,10.5839,10.13,83,9,3.43,DK,1683852513
52,christchurch,-43.5333,172.6333,15.51,67,75,5.66,NZ,1683852513
53,mil'kovo,55.6078,37.7956,10.23,80,60,2.44,RU,1683852514
54,fort mcmurray,56.7268,-111.381,24.77,20,75,3.09,CA,1683852301
55,rongelap,11.1635,166.8941,27.6,81,100,7.94,MH,1683852514
56,thompson,55.7435,-97.8558,20.09,30,40,3.6,CA,1683852514
57,bulanash,57.2783,61.9965,2.61,58,0,1.62,RU,1683852515
58,utrik,11.2278,169.8474,27.37,79,49,7.42,MH,1683852515
59,invercargill,-46.4,168.35,11.75,84,98,3.92,NZ,1683852515
60,papatowai,-46.5619,169.4708,11.33,90,100,4.21,NZ,1683852516
61,gisborne,-38.6533,178.0042,13.29,48,11,6.2,NZ,1683852516
62,isafjordur,66.0755,-23.124,7.18,93,100,2.85,IS,1683852516
63,georgetown,5.4112,100.3354,29.96,89,20,1.54,MY,1683852288
64,margaret river,-33.95,115.0667,13.72,65,61,5.11,AU,1683852517
65,aykhal,66.0,111.5,0.03,96,100,8.14,RU,1683852517
66,al kharijah,25.4514,30.5464,24.41,29,0,2.82,EG,1683852517
67,keflavik,64.0049,-22.5624,8.95,100,100,10.29,IS,1683852517
68,porto novo,6.4965,2.6036,27.26,85,89,1.7,BJ,1683852518
69,san patricio,28.017,-97.5169,28.05,85,0,5.83,US,1683852518
70,mount gambier,-37.8333,140.7667,14.37,64,4,2.51,AU,1683852518
71,naberera,-4.2,36.9333,14.96,95,81,2.73,TZ,1683852518
72,iwanai,42.9744,140.5089,7.29,87,100,2.25,JP,1683852519
73,casablanca,33.5928,-7.6192,15.12,76,100,2.32,MA,1683852347
74,labrador city,52.9463,-66.9114,8.95,40,0,0.0,CA,1683852519
75,ancud,-41.8697,-73.8203,12.32,95,100,3.93,CL,1683852463
76,hamilton,39.1834,-84.5333,24.43,63,0,0.0,US,1683852520
77,erwin,36.1451,-82.4168,21.71,76,100,1.92,US,1683852520
78,fort st. john,56.2499,-120.8529,20.94,28,75,4.63,CA,1683852521
79,mitu,1.1983,-70.1733,21.59,99,73,0.41,CO,1683852522
80,myeik,12.4333,98.6,29.36,74,100,2.59,MM,1683852522
81,punta arenas,-53.15,-70.9167,7.06,87,0,5.66,CL,1683852522
82,qal'ah-ye shahr,35.5473,65.5676,11.25,64,5,0.8,AF,1683852523
83,palpa,-14.5336,-75.1856,21.08,72,1,1.12,PE,1683852523
84,ishigaki,24.3448,124.1572,26.07,61,20,3.6,JP,1683852523
85,murashi,59.3999,48.9615,5.27,76,99,1.65,RU,1683852524
86,enewetak,11.3474,162.3373,27.78,82,70,6.9,MH,1683852524
87,uacu cungo,-11.3634,15.1208,12.69,66,0,1.07,AO,1683852524
88,christiana,-27.914,25.1611,14.67,34,60,2.79,ZA,1683852318
89,carnarvon,-24.8667,113.6333,23.14,48,0,1.06,AU,1683852525
90,guerrero negro,27.9769,-114.0611,16.24,70,38,10.8,MX,1683852525
91,nogliki,51.8333,143.1667,5.65,68,39,0.5,RU,1683852525
92,alofi,-19.0595,-169.9187,28.94,70,75,5.66,NU,1683852526
93,petropavlovsk-kamchatsky,53.0452,158.6483,5.33,65,75,2.0,RU,1683852345
94,longyearbyen,78.2186,15.6401,-4.09,80,75,3.6,SJ,1683852526
95,tostado,-29.232,-61.7692,16.66,73,7,3.78,AR,1683852526
96,paka,4.6374,103.4368,26.96,94,20,0.0,MY,1683852527
97,tiksi,71.6872,128.8694,-10.55,81,74,7.4,RU,1683852527
98,ta`u,-14.2336,-169.5144,27.92,74,5,3.49,AS,1683852527
99,praia da vitoria,38.7333,-27.0667,17.14,94,75,3.95,PT,1683852527
100,oxapampa,-10.5775,-75.4017,14.72,98,100,0.95,PE,1683852528
101,tobelo,1.7284,128.0095,28.57,75,100,0.22,ID,1683852528
102,peniche,39.3558,-9.3811,15.31,82,0,12.08,PT,1683852495
103,uturoa,-16.7333,-151.4333,25.98,82,100,6.61,PF,1683852529
104,pil'na,55.5539,45.9219,6.76,81,8,3.01,RU,1683852529
105,constantia,44.1833,28.65,5.39,64,22,5.12,RO,1683852529
106,mana,5.6592,-53.7767,25.1,91,100,3.3,GF,1683852530
107,colonia menno,-22.3667,-59.8167,16.9,58,68,3.45,PY,1683852530
108,woolgoolga,-30.1106,153.2007,21.13,66,7,2.14,AU,1683852530
109,kristiansund,63.1115,7.732,9.36,93,100,1.03,NO,1683852531
110,west island,-12.1568,96.8225,28.99,79,40,6.69,CC,1683852531
111,bredasdorp,-34.5322,20.0403,10.69,80,72,2.92,ZA,1683852532
112,mandalgovi,45.7625,106.2708,4.93,37,7,5.1,MN,1683852532
113,albany,42.6001,-73.9662,22.36,62,100,2.71,US,1683852532
114,hailar,49.2,119.7,14.79,58,100,2.42,CN,1683852533
115,hoemul-li,41.4339,129.67,12.8,67,100,1.71,KP,1683852533
116,sageata,45.1,26.9833,6.49,80,59,1.36,RO,1683852533
117,mugia,43.1041,-9.2179,13.28,82,83,6.66,ES,1683852534
118,bubaque,11.2833,-15.8333,26.16,76,100,6.6,GW,1683852534
119,codrington,-38.2667,141.9667,14.17,69,97,4.05,AU,1683852534
120,sao gabriel da cachoeira,-0.1303,-67.0892,23.0,96,58,0.49,BR,1683852534
121,hami,42.8,93.45,21.38,11,57,4.69,CN,1683852535
122,la gi,10.6667,107.7833,29.18,74,100,3.09,VN,1683852535
123,saint-louis,16.3333,-15.0,24.8,40,78,6.83,SN,1683852535
124,iskateley,67.6803,53.1512,0.36,97,100,3.55,RU,1683852535
125,razole,16.4833,81.8333,27.81,80,100,0.79,IN,1683852536
126,nova vicosa,-17.8919,-39.3719,24.26,80,99,4.06,BR,1683852536
127,manismata,-2.4667,111.0333,28.69,74,76,1.84,ID,1683852536
128,mancio lima,-7.6142,-72.8958,23.23,96,72,0.39,BR,1683852536
129,dakhla,23.6848,-15.958,18.52,90,73,6.02,EH,1683852537
130,kerikeri,-35.2268,173.9474,16.06,74,23,0.89,NZ,1683852537
131,la isla,18.6,-96.15,29.3,63,57,2.63,MX,1683852537
132,bereznik,62.8551,42.7072,8.94,81,86,2.22,RU,1683852538
133,uyuni,-20.4597,-66.825,8.03,22,100,2.82,BO,1683852434
134,chitipa,-9.7024,33.2697,14.64,98,91,1.89,MW,1683852538
135,vadso,70.0744,29.7487,6.49,93,100,2.06,NO,1683852538
136,hawaiian paradise park,19.5933,-154.9731,25.73,74,100,5.14,US,1683852539
137,tazacorte,28.629,-17.9293,19.54,92,100,7.2,ES,1683852539
138,paita,-5.0892,-81.1144,24.99,78,54,7.07,PE,1683852539
139,abu zabad,12.35,29.25,30.34,35,30,1.69,SD,1683852540
140,bengkulu,-3.8004,102.2655,27.46,78,55,2.23,ID,1683852540
141,vila franca do campo,37.7167,-25.4333,17.23,89,99,0.97,PT,1683852540
142,kismayo,-0.3582,42.5454,26.25,84,68,5.17,SO,1683852540
143,isnos,1.9356,-76.2406,15.46,99,100,1.13,CO,1683852541
144,tubarjal,30.4999,38.216,24.36,20,0,2.66,SA,1683852541
145,broken hill,-31.95,141.4333,17.9,32,26,2.06,AU,1683852541
146,noshiro,40.2039,140.0242,10.46,54,2,3.11,JP,1683852541
147,saipan,15.1355,145.701,30.39,100,0,4.63,MP,1683852542
148,jamestown,42.097,-79.2353,21.8,32,0,2.06,US,1683852424
149,trenggalek,-8.05,111.7167,26.89,89,84,1.62,ID,1683852542
150,olean,42.0776,-78.4297,23.38,34,0,1.54,US,1683852543
151,gargalianoi,37.0667,21.6333,14.09,86,1,2.36,GR,1683852544
152,port shepstone,-30.7414,30.455,20.85,79,98,5.5,ZA,1683852544
153,bull savanna,17.8868,-77.5902,24.8,77,51,4.76,JM,1683852544
154,dwarka,22.2394,68.9678,28.51,74,0,5.54,IN,1683852545
155,genhe,50.7833,121.5167,14.08,66,100,1.3,CN,1683852545
156,al jawf,29.5,38.75,24.0,17,0,2.43,SA,1683852545
157,ganjam,19.3833,85.0667,28.14,80,100,1.89,IN,1683852546
158,lebu,-37.6167,-73.65,12.49,95,100,1.88,CL,1683852494
159,nyurba,63.2842,118.3319,5.36,45,0,3.69,RU,1683852546
160,kilindoni,-7.9139,39.6668,26.77,78,16,4.42,TZ,1683852547
161,balakhta,55.38,91.6,6.02,90,100,1.45,RU,1683852547
162,portland,45.5234,-122.6762,26.02,37,20,2.57,US,1683852540
163,kapa'a,22.0752,-159.319,27.99,70,75,5.14,US,1683852547
164,evans,33.5337,-82.1307,24.44,68,89,3.47,US,1683852548
165,margate,51.3813,1.3862,11.5,90,100,4.47,GB,1683852548
166,avarua,-21.2078,-159.775,27.03,74,75,8.75,CK,1683852548
167,kavieng,-2.5744,150.7967,28.31,74,100,0.82,PG,1683852549
168,chivilcoy,-34.8957,-60.0167,9.99,60,8,2.81,AR,1683852361
169,villacanas,39.6237,-3.3381,9.61,55,0,3.8,ES,1683852549
170,nova sintra,14.8667,-24.7167,20.34,80,5,7.17,CV,1683852549
171,whitehorse,60.7161,-135.0538,16.01,33,75,5.66,CA,1683852550
172,lhokseumawe,5.1801,97.1507,27.65,79,44,1.74,ID,1683852550
173,santa ana,33.7456,-117.8678,24.8,67,40,5.66,US,1683852294
174,sortavala,61.7053,30.6918,7.74,68,6,2.67,RU,1683852551
175,dudinka,69.4058,86.1778,-14.1,95,81,6.26,RU,1683852551
176,fanipol,53.7627,27.2962,7.27,65,6,2.76,BY,1683852551
177,mangalia,43.8,28.5833,9.89,74,88,4.64,RO,1683852552
178,afaahiti,-17.75,-149.2833,27.93,89,100,10.55,PF,1683852552
179,valozhyn,54.0909,26.5225,6.88,61,32,1.47,BY,1683852552
180,achacachi,-16.05,-68.6833,6.32,79,97,1.1,BO,1683852553
181,upington,-28.4478,21.2561,14.21,38,0,2.57,ZA,1683852553
182,rabkavi,16.4667,75.1,26.68,69,100,5.22,IN,1683852554
183,vorkuta,67.5,64.0,-11.73,94,23,2.19,RU,1683852554
184,weno,7.4515,151.8468,28.86,77,20,4.01,FM,1683852554
185,solnechnyy,50.7214,136.6319,16.2,31,0,2.17,RU,1683852555
186,anadyr,64.75,177.4833,3.28,80,0,2.0,RU,1683852555
187,kharovsk,59.9642,40.1912,9.5,64,100,1.89,RU,1683852556
188,moroni,-11.7022,43.2551,25.36,78,32,0.42,KM,1683852556
189,at taraf,25.3628,49.725,27.3,26,58,2.3,SA,1683852556
190,conde,-7.2597,-34.9075,25.7,78,0,2.06,BR,1683852557
191,kingston,17.997,-76.7936,28.53,86,20,8.75,JM,1683852557
192,bandar abbas,27.1865,56.2808,25.99,73,67,3.09,IR,1683852557
193,atafu village,-8.5421,-172.5159,28.89,77,100,5.24,TK,1683852558
194,tukrah,32.5341,20.5791,17.25,86,0,3.54,LY,1683852558
195,garoowe,8.4054,48.4845,27.39,61,100,3.78,SO,1683852558
196,zaragoza,41.6561,-0.8773,13.34,67,0,5.66,ES,1683852559
197,kargasok,59.0556,80.8572,0.25,68,80,5.96,RU,1683852559
198,harper,4.375,-7.7169,27.25,86,96,3.5,LR,1683852559
199,adrar,20.5022,-10.0711,30.48,11,5,3.4,MR,1683852560
200,eirunepe,-6.6603,-69.8736,22.79,97,100,0.94,BR,1683852560
201,nemuro,43.3236,145.575,5.92,71,1,0.24,JP,1683852560
202,anar darah,32.7587,61.654,22.56,31,100,3.39,AF,1683852560
203,xining,36.6167,101.7667,8.12,61,99,1.3,CN,1683852561
204,hengchun,22.0042,120.7439,25.99,63,12,5.19,TW,1683852561
205,dolores,-36.3132,-57.6792,8.77,84,9,1.92,AR,1683852561
206,udachny,66.4167,112.4,1.92,64,100,6.64,RU,1683852562
207,lagunas,-5.2269,-75.6753,22.96,98,67,0.09,PE,1683852562
208,boende,-0.2167,20.8667,22.55,85,18,0.42,CD,1683852562
209,lagoa,39.05,-27.9833,16.4,86,37,4.18,PT,1683852563
210,basti,26.8,82.7167,27.86,15,0,1.92,IN,1683852563
211,dubinino,55.6192,89.0911,6.82,73,85,3.85,RU,1683852563
212,port mathurin,-19.6833,63.4167,25.54,76,56,9.45,MU,1683852563
213,mossel bay,-34.1831,22.146,12.96,69,100,6.69,ZA,1683852564
214,nar'yan-mar,67.6713,53.087,0.4,98,100,3.48,RU,1683852564
215,monrovia,6.3005,-10.7969,26.87,83,100,3.38,LR,1683852565
216,colonia,50.9333,6.95,13.81,92,75,1.54,DE,1683852565
217,kushima,31.4583,131.2333,21.86,51,9,2.72,JP,1683852565
218,waingapu,-9.6567,120.2641,27.44,66,100,6.63,ID,1683852566
219,puerto santa,-8.9906,-78.6456,22.46,86,100,4.63,PE,1683852566
220,inarajan village,13.2736,144.7484,32.54,84,27,3.2,GU,1683852566
221,maceio,-9.6658,-35.7353,24.69,94,0,1.54,BR,1683852567
222,cadale,2.7603,46.3222,26.82,86,66,6.37,SO,1683852567
223,holualoa,19.6228,-155.9522,26.91,88,40,6.69,US,1683852567
224,dohar,23.5883,90.1469,27.99,66,100,3.08,BD,1683852567
225,ilha de mocambique,-15.0342,40.7358,25.58,75,99,1.58,MZ,1683852568
226,mangrol,21.1167,70.1167,28.84,63,1,4.37,IN,1683852568
227,mersa matruh,31.3525,27.2453,18.11,88,40,3.09,EG,1683852568
228,qaqortoq,60.7167,-46.0333,1.68,88,100,0.95,GL,1683852569
229,tacna,-18.0056,-70.2483,15.5,88,100,2.57,PE,1683852569
230,golpazari,40.2847,30.3172,9.08,95,100,1.43,TR,1683852569
231,carbonear,47.7332,-53.2148,5.91,63,13,5.95,CA,1683852570
232,kaset wisai,15.6556,103.5836,32.41,62,100,3.03,TH,1683852570
233,mercedes,-34.6515,-59.4307,11.03,66,80,3.05,AR,1683852570
234,port hedland,-20.3167,118.5667,26.03,13,3,8.75,AU,1683852571
235,kachug,53.9606,105.8817,7.81,41,90,3.15,RU,1683852571
236,greater sudbury,46.49,-80.99,16.54,76,100,4.94,CA,1683852491
237,taranagar,28.6709,75.0351,31.06,12,1,2.31,IN,1683852571
238,conception bay south,47.4999,-52.9981,5.53,60,34,4.23,CA,1683852374
239,ambalavao,-21.8333,46.9333,16.5,90,95,1.52,MG,1683852572
240,lata,40.1629,-8.3327,15.45,87,0,1.8,PT,1683852572
241,yuzhno-kurilsk,44.0306,145.8556,6.73,67,9,4.04,RU,1683852572
242,pimentel,-6.8367,-79.9342,25.16,73,20,6.69,PE,1683852573
243,katsuura,35.1333,140.3,18.01,56,87,3.81,JP,1683852573
244,ulsteinvik,62.3432,5.8487,10.5,95,100,0.89,NO,1683852573
245,laguna,38.421,-121.4238,26.66,33,0,4.12,US,1683852573
246,coahuayana de hidalgo,18.7,-103.6583,27.56,67,44,2.22,MX,1683852574
247,sechura,-5.5569,-80.8222,25.96,69,100,6.76,PE,1683852574
248,achinsk,56.2694,90.4993,7.98,64,100,4.01,RU,1683852574
249,santiago de cao,-7.9589,-79.2392,23.07,83,88,3.6,PE,1683852575
250,tranqueras,-31.2,-55.75,7.98,84,0,0.23,UY,1683852575
251,manokwari,-0.8667,134.0833,28.36,73,100,4.57,ID,1683852575
252,challapata,-18.9,-66.7667,8.43,29,92,1.6,BO,1683852576
253,blackwater,-23.5833,148.8833,23.64,51,5,7.84,AU,1683852576
254,camana,-16.6228,-72.7111,19.68,82,58,2.63,PE,1683852576
255,dryden,49.7833,-92.7503,21.16,40,75,2.06,CA,1683852577
256,alice springs,-23.7,133.8833,16.75,34,0,3.09,AU,1683852577
257,san diego,32.7153,-117.1573,21.6,71,75,6.17,US,1683852056
258,pangody,65.85,74.4859,-12.93,95,69,2.66,RU,1683852578
259,ciudad lazaro cardenas,17.9583,-102.2,28.07,72,99,4.36,MX,1683852578
260,baissa,7.2333,10.6333,23.57,80,94,1.21,NG,1683852578
261,chonchi,-42.6128,-73.8092,12.84,96,100,1.84,CL,1683852494
262,richards bay,-28.783,32.0377,18.61,87,1,2.51,ZA,1683852415
263,kalabo,-14.97,22.6814,14.98,53,0,1.97,ZM,1683852579
264,detroit lakes,46.8172,-95.8453,22.14,60,0,2.06,US,1683852579
265,argo,37.6333,22.7333,11.55,90,20,1.96,GR,1683852580
266,sitka,57.0531,-135.33,11.94,58,100,4.12,US,1683852580
267,wailua homesteads,22.0669,-159.378,27.24,71,75,5.14,US,1683852580
268,sandnessjoen,66.0217,12.6316,7.58,94,99,1.34,NO,1683852580
269,camarinas,43.1311,-9.1817,13.29,83,87,6.23,ES,1683852581
270,progreso,21.2833,-89.6667,35.06,72,90,3.9,MX,1683852581
271,penzance,50.1186,-5.5371,8.38,87,2,3.98,GB,1683852581
272,eforie sud,44.0229,28.6494,5.45,67,38,5.06,RO,1683852582
273,minas de marcona,-15.2119,-75.1103,14.47,86,44,4.38,PE,1683852582
274,kindirip,37.447,41.221,18.46,36,100,1.79,TR,1683852582
275,abou el hassan,36.4166,1.1962,20.69,78,6,4.28,DZ,1683852582
276,mathba,22.2855,89.9629,29.15,71,100,1.45,BD,1683852583
277,ilulissat,69.2167,-51.1,-2.99,93,100,7.72,GL,1683852583
278,ambon,-3.6954,128.1814,25.08,94,40,1.54,ID,1683852583
279,alexandria,31.2156,29.9553,19.3,77,0,6.48,EG,1683852504
280,kota kinabalu,5.9749,116.0724,29.99,79,20,1.03,MY,1683852479
281,papao,-17.75,-149.55,28.82,90,100,12.01,PF,1683852584
282,sao joao da barra,-21.6403,-41.0511,22.05,79,100,3.25,BR,1683852584
283,sorochinsk,52.4338,53.1583,10.11,96,100,3.71,RU,1683852585
284,port lincoln,-34.7333,135.8667,16.22,58,21,4.6,AU,1683852585
285,arraial do cabo,-22.9661,-42.0278,22.78,73,88,4.75,BR,1683852585
286,escanaba,45.7453,-87.0646,17.98,48,0,3.6,US,1683852585
287,bilibino,68.0546,166.4372,1.45,91,100,1.67,RU,1683852586
288,fort bragg,35.139,-79.006,24.91,60,0,3.58,US,1683852586
289,kodiak,57.79,-152.4072,6.73,87,100,6.17,US,1683852586
290,susuman,62.7833,148.1667,4.12,73,100,1.14,RU,1683852586
291,el bauga,18.262,33.9081,29.27,11,80,4.17,SD,1683852587
292,djibouti,11.5,42.5,25.44,80,40,4.48,DJ,1683852553
293,kinablangan,7.6947,126.5503,28.77,75,100,1.08,PH,1683852587
294,sittwe,20.15,92.9,28.51,78,100,4.1,MM,1683852587
295,nuuk,64.1835,-51.7216,1.34,86,75,11.83,GL,1683852431
296,arteche,12.2645,125.4048,29.45,68,97,3.04,PH,1683852588
297,sanibel,26.449,-82.0223,30.04,70,100,1.04,US,1683852588
298,hope,33.6671,-93.5916,26.03,91,100,2.47,US,1683852588
299,mayya,61.7333,130.2811,2.62,39,100,3.33,RU,1683852589
300,taulaga,-11.0553,-171.0883,28.47,71,38,4.69,AS,1683852589
301,moyale,3.5167,39.0584,17.46,84,88,0.77,KE,1683852589
302,aigio,38.2486,22.0819,14.56,82,27,2.28,GR,1683852594
303,east london,-33.0153,27.9116,18.5,83,99,5.58,ZA,1683852421
304,angaur state,6.906,134.13,28.69,74,51,1.16,PW,1683852595
305,pisco,-13.7,-76.2167,21.03,78,100,4.63,PE,1683852595
306,morant bay,17.8815,-76.4093,28.79,82,81,3.89,JM,1683852595
307,klaksvik,62.2266,-6.589,9.51,81,0,1.22,FO,1683852601
308,popondetta,-8.7537,148.2534,29.89,73,82,1.75,PG,1683852601
309,prineville,44.2999,-120.8345,22.39,36,100,3.6,US,1683852602
310,tralee,52.2704,-9.7026,8.86,97,18,2.21,IE,1683852602
311,ust-nera,64.5667,143.2,5.19,57,100,1.21,RU,1683852603
312,kharp,66.8014,65.8081,-8.47,96,99,1.12,RU,1683852603
313,mirnyy,62.5353,113.9611,1.14,82,100,3.93,RU,1683852604
314,point fortin,10.1833,-61.6833,27.16,79,89,7.19,TT,1683852604
315,mili,6.0815,171.735,27.88,82,95,7.24,MH,1683852605
316,okhotsk,59.3833,143.3,2.88,79,100,1.15,RU,1683852605
317,susaki,33.3667,133.2833,21.04,48,29,2.08,JP,1683852606
318,domanivka,47.6319,30.9885,6.74,66,3,1.49,UA,1683852606
319,rampura,30.25,75.2333,28.79,10,35,1.85,IN,1683852607
320,shar,49.5886,81.0453,14.92,60,100,5.86,KZ,1683852607
321,alderetes,-26.8167,-65.1333,18.95,82,100,1.03,AR,1683852608
322,asau,46.4333,26.4,7.51,88,67,0.62,RO,1683852608
323,jaisalmer,26.9147,70.9181,29.88,28,0,5.6,IN,1683852608
324,vwawa,-9.1167,32.9333,13.93,94,86,1.5,TZ,1683852608
325,mahibadhoo,3.7833,72.9667,27.85,79,100,7.3,MV,1683852609
326,beipiao,41.7919,120.7792,23.21,26,7,8.54,CN,1683852609
327,galliano,29.4422,-90.2992,28.0,78,100,2.57,US,1683852609
328,putian,25.4394,119.0103,20.17,79,100,0.73,CN,1683852610
329,faya-largeau,17.9257,19.1043,28.48,22,62,6.5,TD,1683852610
330,mar del plata,-38.0023,-57.5575,12.83,77,0,1.54,AR,1683852610
331,puerto colombia,10.9878,-74.9547,28.05,87,10,8.05,CO,1683852611
332,prince george,53.9166,-122.753,21.83,46,0,5.66,CA,1683852610
333,krutinka,56.0055,71.5113,3.21,61,0,4.94,RU,1683852611
334,nagqu,31.5,92.0,-3.64,53,100,2.45,CN,1683852612
335,el calafate,-50.3408,-72.2768,6.92,87,97,3.47,AR,1683852612
336,goderich,43.7501,-81.7165,21.18,49,62,1.54,CA,1683852372
337,vila velha,-20.3297,-40.2925,23.97,88,100,2.57,BR,1683852613
338,sisimiut,66.9395,-53.6735,-2.58,87,100,6.23,GL,1683852613
339,port augusta,-32.5,137.7667,18.48,35,10,1.83,AU,1683852613
340,calvinia,-31.4707,19.776,10.26,88,100,2.02,ZA,1683852614
341,knyaze-volkonskoye,48.4642,135.4567,18.19,43,1,3.45,RU,1683852614
342,vilyuysk,63.7553,121.6247,4.77,41,2,2.47,RU,1683852614
343,bamiantong,44.9333,130.5333,19.76,28,100,3.6,CN,1683852614
344,angra do heroismo,38.65,-27.2167,17.34,90,75,2.66,PT,1683852615
345,pizarro,4.9533,-77.366,26.4,85,25,0.76,CO,1683852615
346,happy valley-goose bay,53.3168,-60.3315,8.17,31,20,2.57,CA,1683852615
347,geraldton,-28.7667,114.6,17.23,45,75,8.23,AU,1683852616
348,kiunga,-6.1219,141.2906,27.98,82,90,1.04,PG,1683852616
349,khash,28.2211,61.2158,23.21,18,41,1.1,IR,1683852617
350,san bartolo,19.1833,-100.05,18.28,41,19,1.61,MX,1683852617
351,bam,29.106,58.357,26.26,19,85,2.41,IR,1683852617
352,lihue,21.9789,-159.3672,27.58,70,75,5.14,US,1683852618
353,flying fish cove,-10.4217,105.6791,26.82,94,100,5.66,CX,1683852372
354,ouargla,31.9493,5.325,28.04,16,0,1.54,DZ,1683852618
355,plettenberg bay,-34.0527,23.3716,14.34,81,100,5.57,ZA,1683852618
356,tonj,7.2737,28.6822,24.04,74,100,1.82,SS,1683852619
357,kristinehamn,59.3098,14.1081,8.31,69,58,2.43,SE,1683852619
358,tazovsky,67.4667,78.7,-17.43,98,87,3.32,RU,1683852619
359,igarka,67.4667,86.5833,-13.33,85,61,8.31,RU,1683852620
360,kebomas,-7.1667,112.6333,27.76,79,64,1.46,ID,1683852363
361,shihezi,44.3,86.0333,23.77,18,85,1.99,CN,1683852620
362,labuan bajo,-8.4964,119.8877,27.94,66,7,2.25,ID,1683852621
363,itarantim,-15.6597,-40.0656,20.64,96,28,1.58,BR,1683852621
364,enshi,30.3,109.4833,19.17,77,50,0.68,CN,1683852621
365,st. john's,47.5649,-52.7093,5.66,58,20,9.77,CA,1683852430
366,dalandzadgad,43.5708,104.425,9.0,36,6,1.75,MN,1683852622
367,hasaki,35.7333,140.8333,19.05,49,81,3.96,JP,1683852622
368,cill airne,52.05,-9.5167,8.6,98,52,1.95,IE,1683852623
369,bilisht,40.6275,20.99,7.5,96,86,1.86,AL,1683852624
370,flin flon,54.7682,-101.865,19.21,45,100,0.7,CA,1683852625
371,bathsheba,13.2167,-59.5167,27.34,78,20,5.14,BB,1683852626
372,kaa-khem,51.6833,94.7333,12.49,30,100,1.51,RU,1683852626
373,chernyshevskiy,63.0128,112.4714,1.85,73,100,4.04,RU,1683852626
374,lodja,-3.4833,23.4333,21.69,80,71,0.55,CD,1683852627
375,ebon,4.582,168.6964,27.54,78,100,2.6,MH,1683852627
376,juneau,58.3019,-134.4197,16.0,75,75,6.69,US,1683852605
377,hailun,47.45,126.9333,21.17,21,100,8.32,CN,1683852628
378,boditi,6.9667,37.8667,13.79,95,21,0.95,ET,1683852628
379,jeddah,21.5169,39.2192,26.92,29,0,0.0,SA,1683852629
380,nikol'sk,53.7189,46.0712,8.35,79,100,4.16,RU,1683852629
381,castro,-24.7911,-50.0119,10.17,59,0,0.4,BR,1683852629
382,ath thawrah,35.8469,38.5443,24.84,34,100,4.72,SY,1683852629
383,yeppoon,-23.1333,150.7333,23.88,63,17,8.05,AU,1683852630
384,kittila,67.6647,24.8936,6.08,81,0,1.03,FI,1683852630
385,takaungu,-3.6837,39.8566,24.51,88,20,4.48,KE,1683852630
386,askoy,60.4092,5.226,9.46,97,82,0.51,NO,1683852630
387,coquimbo,-29.9533,-71.3436,12.85,100,0,1.54,CL,1683851906
388,yingkou,40.6648,122.2283,18.81,42,77,9.2,CN,1683852631
389,sarmiento,-45.5882,-69.07,14.29,53,100,8.13,AR,1683852632
390,urucui,-7.2294,-44.5561,26.89,64,100,1.19,BR,1683852632
391,sabirabad,40.0095,48.4752,14.61,76,12,2.04,AZ,1683852632
392,tindouf,27.6711,-8.1474,28.25,20,0,8.23,DZ,1683852632
393,lerwick,60.1545,-1.1494,8.0,90,0,3.51,GB,1683852633
394,ad dawadimi,24.5077,44.3924,23.64,17,32,5.86,SA,1683852633
395,wakema,16.6,95.1833,25.33,92,100,3.3,MM,1683852633
396,la passe,45.5549,-0.8967,11.66,85,75,1.69,FR,1683852634
397,suva,-18.1416,178.4415,28.71,65,75,3.6,FJ,1683852634
398,sanctuary point,-35.1114,150.629,21.29,42,5,2.46,AU,1683852634
399,belgrade,44.804,20.4651,12.81,62,0,7.72,RS,1683852221
400,leksand,60.7339,15.0032,9.81,68,87,1.33,SE,1683852635
401,qarqaraly,49.4058,75.4742,12.69,67,100,3.9,KZ,1683852635
402,lajere,11.9797,11.4443,27.0,12,97,1.84,NG,1683852635
403,egilsstadir,65.2653,-14.3948,7.95,76,0,5.66,IS,1683852636
404,torghay,49.6339,63.4981,12.27,65,45,5.17,KZ,1683852636
405,pamandzi,-12.7967,45.2794,24.88,94,0,0.0,YT,1683852636
406,indri,29.88,77.0711,26.73,16,30,2.04,IN,1683852637
407,kruisfontein,-34.0033,24.7314,14.94,81,100,6.29,ZA,1683852637
408,tromso,69.6496,18.957,6.32,93,100,4.63,NO,1683852637
409,medicine hat,50.0501,-110.6683,13.24,88,100,3.6,CA,1683852421
410,lincoln city,44.9582,-124.0179,20.89,78,95,6.26,US,1683852638
411,yamada,39.4667,141.95,13.03,56,0,2.62,JP,1683852638
412,mamadysh,55.7152,51.408,7.6,70,95,2.89,RU,1683852638
413,lospalos,-8.5186,127.0025,24.73,66,100,4.94,TL,1683852638
414,kamen'-rybolov,44.7481,132.0403,14.22,54,100,4.42,RU,1683852639
415,acarau,-2.8856,-40.12,25.87,83,36,3.18,BR,1683852639
416,jinchang,38.4953,102.1739,16.33,16,100,4.65,CN,1683852640
417,kingscliff,-28.2667,153.5667,23.74,60,3,5.14,AU,1683852640
418,cradock,-32.1642,25.6192,11.85,90,100,2.26,ZA,1683852640
419,yanggu,36.1106,115.7753,23.18,37,35,6.15,CN,1683852640
420,catriel,-37.8791,-67.7956,16.47,35,30,4.35,AR,1683852641
421,chemille-melay,47.2148,-0.7249,9.05,94,80,1.8,FR,1683852641
422,mata-utu,-13.2816,-176.1745,29.19,68,87,6.78,WF,1683852611
423,prestatyn,53.3375,-3.4078,12.14,95,7,2.53,GB,1683852641
424,yatou,37.15,122.3833,19.43,44,59,5.5,CN,1683852642
425,phetchabun,16.25,101.0833,26.15,74,84,1.03,TH,1683852642
426,kencong,-8.2833,113.3667,27.0,83,27,0.54,ID,1683852642
427,parras de la fuente,25.4167,-102.1833,26.78,8,2,3.0,MX,1683852632
428,najaf,31.9985,44.3398,23.88,33,0,0.0,IQ,1683852643
429,khorixas,-20.3667,14.9667,19.77,41,100,0.69,NA,1683852643
430,north madison,38.7678,-85.3966,22.81,68,40,3.09,US,1683852643
431,vydrino,51.485,104.8461,4.78,73,100,1.54,RU,1683852643
432,choele choel,-39.2667,-65.6833,16.25,45,100,4.93,AR,1683852644
433,korla,41.7597,86.1469,18.44,18,95,3.01,CN,1683852644
434,ugoofaaru,5.6667,73.0,28.75,77,100,5.12,MV,1683852644
435,mogadishu,2.0371,45.3438,26.92,84,80,6.3,SO,1683852431
436,howrah,22.5892,88.3103,29.0,84,75,1.54,IN,1683852645
437,northam,51.0333,-4.2167,9.1,91,10,2.1,GB,1683852645
438,fasa,28.9383,53.6482,20.58,30,0,4.12,IR,1683852645
439,dehui,44.5333,125.7,19.82,30,100,7.84,CN,1683852645
440,batang,-6.4846,110.7083,28.21,77,69,2.45,ID,1683852646
441,portel,-1.9356,-50.8211,24.07,96,100,0.98,BR,1683852646
442,maua,-23.6678,-46.4614,17.42,88,80,2.69,BR,1683852646
443,port-gentil,-0.7193,8.7815,27.31,84,99,4.37,GA,1683852646
444,ola,59.5833,151.2833,5.08,75,47,1.22,RU,1683852647
445,harar,9.3094,42.1258,14.61,90,46,0.85,ET,1683852647
446,grand falls-windsor,48.9332,-55.6649,4.72,64,43,1.29,CA,1683852522
447,puerto real,36.5282,-6.1901,19.09,82,0,2.57,ES,1683852647
448,evinayong,1.4368,10.5512,20.1,98,100,0.12,GQ,1683852648
449,hotan,37.0997,79.9269,18.13,9,0,1.66,CN,1683852648
450,puerto deseado,-47.7503,-65.8938,11.47,71,100,4.8,AR,1683852648
451,peace river,56.2501,-117.286,19.17,52,75,5.14,CA,1683852649
452,cidreira,-30.1811,-50.2056,17.0,72,99,4.15,BR,1683852649
453,brisas de zicatela,15.8369,-97.0419,29.0,72,100,4.22,MX,1683852650
454,lagunillas,10.1301,-71.2595,28.7,67,60,4.58,VE,1683852650
455,umm ruwaba,12.9061,31.2158,30.17,29,9,3.32,SD,1683852651
456,ulladulla,-35.35,150.4667,19.06,43,27,1.51,AU,1683852651
457,levelland,33.5873,-102.378,26.77,13,0,5.09,US,1683852651
458,new norfolk,-42.7826,147.0587,14.4,65,95,1.43,AU,1683852652
459,malabar,-33.9667,151.25,21.68,67,20,4.12,AU,1683852652
460,itoman,26.1247,127.6694,24.01,60,20,4.63,JP,1683852652
461,haiku-pauwela,20.9219,-156.3051,28.01,55,40,9.26,US,1683852652
462,pindiga,9.9833,10.9333,27.22,49,100,3.99,NG,1683852653
463,kem',64.9555,34.5793,4.21,79,3,3.84,RU,1683852653
464,amga,60.8953,131.9608,1.44,60,100,2.43,RU,1683852653
465,chipinge,-20.1883,32.6236,13.48,79,0,1.17,ZW,1683852653
466,chervyen',53.7059,28.4313,3.17,73,6,1.91,BY,1683852654
467,wonosobo,-7.36,109.9025,23.97,75,67,0.87,ID,1683852654
468,waiuku,-37.25,174.75,16.59,66,5,3.68,NZ,1683852654
469,norilsk,69.3535,88.2027,-14.21,93,68,4.48,RU,1683852655
470,bodo,67.28,14.405,7.19,99,100,7.72,NO,1683852655
471,george town,5.4112,100.3354,28.96,89,20,1.54,MY,1683851829
472,acapulco de juarez,16.8634,-99.8901,29.9,66,75,3.09,MX,1683852505
473,al wajh,26.2455,36.4525,23.97,41,0,2.06,SA,1683852656
474,malmberget,67.1753,20.6549,0.84,96,62,1.84,SE,1683852656
475,thinadhoo,0.5333,72.9333,28.31,77,100,6.99,MV,1683852656
476,peronnas,46.1907,5.2082,10.84,93,87,0.45,FR,1683852656
477,olinda,-8.0089,-34.8553,27.85,69,75,3.09,BR,1683852657
478,topolobampo,25.6,-109.05,25.44,41,70,5.17,MX,1683852657
479,minab,27.1467,57.0801,28.4,36,95,0.76,IR,1683852657
480,fale old settlement,-9.3852,-171.2468,28.74,77,25,6.18,TK,1683852657
481,puyang,29.4603,119.8861,18.4,84,98,0.92,CN,1683852658
482,kununurra,-15.7667,128.7333,24.99,25,51,4.12,AU,1683852658
483,tual,-5.6667,132.75,26.27,86,100,3.65,ID,1683852658
484,sao tome,0.3365,6.7273,27.34,83,45,3.67,ST,1683852658
485,rosarito,32.3333,-117.0333,19.26,72,13,4.81,MX,1683852659
486,kulhudhuffushi,6.6221,73.07,28.81,75,100,2.89,MV,1683852659
487,kembe,4.6228,21.8865,20.9,95,78,1.12,CF,1683852659
488,fortuna,40.5982,-124.1573,13.85,83,100,5.14,US,1683852659
489,east ballina,-28.8667,153.5833,18.78,70,16,2.41,AU,1683852660
490,fengrun,39.8333,118.1167,23.56,34,0,4.4,CN,1683852660
491,laojunmiao,39.8333,97.7333,14.45,14,0,3.15,CN,1683852660
492,al ghayzah,16.2079,52.176,27.25,69,8,1.02,YE,1683852660
493,el hadjira,32.6134,5.5126,27.8,21,81,5.12,DZ,1683852661
494,basco,20.4487,121.9702,25.57,71,29,6.45,PH,1683852661
495,mount isa,-20.7333,139.5,24.87,25,0,5.14,AU,1683852661
496,bhamo,24.2667,97.2333,28.64,37,95,0.54,MM,1683852662
497,xinyang,32.1228,114.0656,20.77,57,76,2.18,CN,1683852662
498,cabo san lucas,22.8909,-109.9124,28.61,29,0,8.75,MX,1683852364
499,chagoda,59.164,35.3285,8.22,61,100,2.08,RU,1683852662
500,langarud,37.197,50.1535,16.92,92,77,1.54,IR,1683852663
501,kigoma,-4.8769,29.6267,20.33,94,20,0.0,TZ,1683852663
502,biltine,14.5333,20.9167,29.61,44,100,2.84,TD,1683852663
503,bentiu,9.2333,29.8333,29.15,42,11,1.6,SS,1683852663
504,chak two hundred forty-nine thal development authority,31.1796,71.2095,30.6,15,90,2.97,PK,1683852664
505,crane,31.3974,-102.3501,28.8,9,2,5.43,US,1683852664
506,hirara,24.8,125.2833,25.15,65,40,4.63,JP,1683852664
507,jeremoabo,-10.075,-38.4808,23.74,83,81,2.0,BR,1683852664
508,ust'-ilimsk,58.0006,102.6619,8.49,40,100,4.4,RU,1683852665
509,rizokarpaso,35.6,34.375,20.05,68,100,5.96,CY,1683852665
510,muroto-misakicho,33.2833,134.15,18.31,55,0,2.47,JP,1683852665
511,queenstown,-31.8976,26.8753,12.63,81,100,1.5,ZA,1683852665
512,bramming,55.4695,8.7001,11.18,94,43,3.6,DK,1683852666
513,chiang klang,19.2938,100.8617,27.08,86,95,0.38,TH,1683852666
514,guane,22.2025,-84.0875,25.2,83,7,2.05,CU,1683852666
515,palmer,42.1584,-72.3287,23.65,44,40,3.09,US,1683852616
516,urzhar,47.093,81.6294,21.12,37,100,1.45,KZ,1683852667
517,puerto madero,14.7208,-92.4215,29.39,70,0,3.58,MX,1683852667
518,road town,18.4167,-64.6167,27.02,74,20,4.12,VG,1683852667
519,namtsy,62.7161,129.6658,2.2,35,100,4.05,RU,1683852668
520,wynne,35.2245,-90.7868,21.33,94,100,4.75,US,1683852668
521,"laikit, laikit ii (dimembe)",1.4792,124.9735,29.47,66,40,4.12,ID,1683852668
522,al qadarif,14.0349,35.3834,30.35,12,14,4.3,SD,1683852668
523,derzhavinsk,51.1,66.3167,11.68,62,73,6.12,KZ,1683852669
524,zarinsk,53.7074,84.9493,8.22,80,100,4.64,RU,1683852669
525,bardai,11.65,7.2333,26.56,54,14,2.46,NG,1683852669
526,rakops,-21.0167,24.3333,18.42,40,0,2.81,BW,1683852669
527,katabu,-4.9333,122.5167,28.94,64,80,2.09,ID,1683852670
528,pitimbu,-7.4706,-34.8086,26.33,77,39,3.92,BR,1683852670
529,columbia,34.0007,-81.0348,25.8,55,0,3.6,US,1683852239
530,labytnangi,66.6572,66.4183,-9.9,96,99,1.63,RU,1683852671
531,olovyannaya,50.95,115.5667,9.79,32,9,8.32,RU,1683852671
532,caala,-12.8525,15.5606,12.09,57,0,1.31,AO,1683852671
533,santa terezinha,-29.9002,-50.0904,16.27,79,97,3.89,BR,1683852671
534,malango,-2.9627,119.9001,24.56,80,100,0.99,ID,1683852673
535,boguchany,58.3814,97.4531,8.94,40,100,0.55,RU,1683852673
536,robat karim,35.4846,51.0829,20.76,42,0,4.12,IR,1683852674
537,mawu,29.5923,107.3139,15.97,92,100,1.11,CN,1683852674
538,xilin hot,43.9667,116.0333,13.76,43,62,5.41,CN,1683852674
539,rahimah,26.7079,50.0619,24.12,53,8,3.43,SA,1683852675
540,rikaze,29.25,88.8833,3.09,64,100,2.11,CN,1683852675
541,tangalle,6.024,80.7911,26.09,93,100,5.35,LK,1683852675
542,pangoa,-12.1167,-73.0,19.89,98,85,1.02,PE,1683852676
543,horta,38.5333,-28.6333,16.12,84,54,1.34,PT,1683852676
544,kisangani,0.5167,25.2,21.08,99,94,0.78,CD,1683852676
545,brookings,44.3114,-96.7984,23.43,68,0,6.17,US,1683852604
546,zimapan,20.75,-99.35,22.77,39,0,1.14,MX,1683852677
547,i-n-salah,27.1935,2.4607,28.5,16,89,5.1,DZ,1683852677
548,kutum,14.2,24.6667,25.63,41,51,1.53,SD,1683852677
549,nacala,-14.5428,40.6728,22.03,92,81,1.92,MZ,1683852677
550,nadym,65.5333,72.5167,-9.28,88,12,2.83,RU,1683852678
551,page,36.9147,-111.4558,25.88,16,20,7.6,US,1683852629
552,vorgashor,67.5833,63.95,-11.79,94,35,2.35,RU,1683852678
553,kalmunai,7.4167,81.8167,27.13,84,100,2.09,LK,1683852679
554,pacocha,-17.5833,-71.3333,18.73,85,97,0.32,PE,1683852679
555,praia,14.9215,-23.5087,23.3,73,20,3.09,CV,1683852669
556,talamba,30.5271,72.2401,29.09,13,38,3.16,PK,1683852680
557,al jubayl,27.0112,49.6583,28.02,49,10,3.67,SA,1683852680
558,oyama,36.3,139.8,18.66,36,37,1.71,JP,1683852680
559,slavske,48.8473,23.4459,5.8,92,75,0.85,UA,1683852680
560,aldan,58.6031,125.3894,-2.03,94,100,4.31,RU,1683852681
561,lazaro cardenas,17.9583,-102.2,28.07,72,99,4.36,MX,1683852681
562,borogontsy,62.6683,131.1683,1.67,48,100,2.65,RU,1683852681
563,saint-joseph,-21.3667,55.6167,21.21,77,98,4.33,RE,1683852681
564,magdagachi,53.45,125.8,18.17,32,100,4.7,RU,1683852682
565,kayyerkan,69.3786,87.7439,-14.28,84,96,7.07,RU,1683852682
566,concepcion,-36.827,-73.0498,14.89,88,0,1.54,CL,1683852514
567,polyarnyy,69.1989,33.4478,3.0,100,100,2.84,RU,1683852682
568,ha'il,27.5219,41.6907,20.01,24,0,4.12,SA,1683852682
569,merritt,50.1123,-120.7942,19.89,30,49,3.03,CA,1683852683
570,ivdel',60.6911,60.4206,2.54,68,72,1.55,RU,1683852683
571,navia,43.5354,-6.7194,11.05,96,89,1.73,ES,1683852683
572,soio,-6.1349,12.3689,26.33,91,34,2.4,AO,1683852683
573,bindki,26.0333,80.6,28.91,13,0,2.39,IN,1683852684
574,palikir - national government center,6.9248,158.1611,32.41,70,40,3.09,FM,1683852684
575,port macquarie,-31.4333,152.9167,21.61,62,0,2.12,AU,1683852684
576,akureyri,65.6835,-18.0878,9.96,66,75,3.09,IS,1683852685
577,solleftea,63.1667,17.2667,12.61,74,100,1.56,SE,1683852685
578,ierapetra,35.01,25.7353,17.3,69,100,4.02,GR,1683852685
579,pangai,-19.8,-174.35,29.06,84,20,2.57,TO,1683852685
